{"type":"FeatureCollection","cities":[{"scale":"27.06","color":"red","properties":{"name":"United States"},"id":1,"geometry":{"coordinates":[-98.5,39.7599983215332],"type":"Point"}},{"properties":{"name":"Iran"},"geometry":{"type":"Point","coordinates":[53,32]},"id":2,"scale":"8.39","color":"red"},{"properties":{"name":"Washington, D.C."},"geometry":{"type":"Point","coordinates":[-77.0363693237305,38.8951110839844]},"id":3,"scale":"6.80","color":"red"},{"properties":{"name":"China"},"geometry":{"type":"Point","coordinates":[105,35]},"id":4,"scale":"5.50","color":"red"},{"id":5,"geometry":{"coordinates":[38,35],"type":"Point"},"properties":{"name":"Syria"},"color":"red","scale":"5.50"},{"scale":"3.91","color":"red","properties":{"name":"Russia"},"geometry":{"type":"Point","coordinates":[100,60]},"id":6},{"geometry":{"coordinates":[44,33],"type":"Point"},"id":7,"properties":{"name":"Iraq"},"color":"red","scale":"2.75"},{"color":"red","scale":"2.17","id":8,"geometry":{"type":"Point","coordinates":[34.75,31.5]},"properties":{"name":"Israel"}},{"scale":"1.74","color":"red","properties":{"name":"New Jersey"},"id":9,"geometry":{"type":"Point","coordinates":[-74.499870300293,40.1670608520508]}},{"geometry":{"coordinates":[-77.0363693237305,38.8976097106934],"type":"Point"},"id":10,"properties":{"name":"The White House"},"color":"red","scale":"1.74"},{"properties":{"name":"Florida"},"geometry":{"type":"Point","coordinates":[-82.5000991821289,28.7505397796631]},"id":11,"scale":"1.59","color":"red"},{"properties":{"name":"Mexico City"},"geometry":{"coordinates":[-99.1276626586914,19.4284706115723],"type":"Point"},"id":12,"scale":"1.30","color":"red"},{"scale":"1.30","color":"red","properties":{"name":"Ohio Wesleyan University"},"geometry":{"coordinates":[-83.0671310424805,40.2964515686035],"type":"Point"},"id":13},{"properties":{"name":"Al Ghurair Arjaan By Rotana and Al Ghurair Rayhaan By Rotana"},"geometry":{"type":"Point","coordinates":[55.316780090332,25.2694892883301]},"id":14,"scale":"1.01","color":"red"},{"scale":"1.01","color":"red","properties":{"name":"Carson"},"id":15,"geometry":{"type":"Point","coordinates":[-118.282020568848,33.8314094543457]}},{"color":"red","scale":"0.87","geometry":{"type":"Point","coordinates":[-81.0000915527344,34.000431060791]},"id":16,"properties":{"name":"South Carolina"}},{"color":"red","scale":"0.87","id":17,"geometry":{"type":"Point","coordinates":[54.5,23.75]},"properties":{"name":"United Arab Emirates"}},{"scale":"0.87","color":"red","properties":{"name":"Simi Valley"},"geometry":{"coordinates":[-118.781478881836,34.2694511413574],"type":"Point"},"id":18},{"scale":"0.87","color":"red","properties":{"name":"United Nations Headquarters"},"geometry":{"type":"Point","coordinates":[-73.9679183959961,40.7495498657227]},"id":19},{"scale":"0.87","color":"red","properties":{"name":"Atlantic City"},"geometry":{"type":"Point","coordinates":[-74.4229278564453,39.3642807006836]},"id":20},{"id":21,"geometry":{"coordinates":[-93.50048828125,42.0002708435059],"type":"Point"},"properties":{"name":"Iowa"},"color":"red","scale":"0.87"},{"color":"red","scale":"0.72","id":22,"geometry":{"coordinates":[-90.0004119873047,44.5002403259277],"type":"Point"},"properties":{"name":"Wisconsin"}},{"color":"red","scale":"0.72","id":23,"geometry":{"coordinates":[-113.642578125,60.1086692810059],"type":"Point"},"properties":{"name":"Canada"}},{"scale":"0.72","color":"red","properties":{"name":"North Korea"},"id":24,"geometry":{"coordinates":[127,40],"type":"Point"}},{"scale":"0.72","color":"red","properties":{"name":"Colorado Springs"},"geometry":{"type":"Point","coordinates":[-104.821357727051,38.8338813781738]},"id":25},{"properties":{"name":"Afghanistan"},"id":26,"geometry":{"coordinates":[66,33],"type":"Point"},"scale":"0.72","color":"red"},{"color":"red","scale":"0.72","id":27,"geometry":{"type":"Point","coordinates":[-74.0059661865234,40.7142715454102]},"properties":{"name":"New York City"}},{"properties":{"name":"Louisiana"},"geometry":{"type":"Point","coordinates":[-92.0003967285156,31.0004692077637]},"id":29,"scale":"0.58","color":"red"},{"scale":"0.58","color":"red","properties":{"name":"Embassy of the Union of Soviet Socialist Republics Building"},"id":30,"geometry":{"type":"Point","coordinates":[-77.039421081543,38.9034385681152]}},{"color":"red","scale":"0.58","id":31,"geometry":{"coordinates":[-79.5,22],"type":"Point"},"properties":{"name":"Cuba"}},{"scale":"0.58","color":"red","properties":{"name":"Kentucky"},"id":32,"geometry":{"coordinates":[-84.8776168823242,38.2004203796387],"type":"Point"}},{"color":"red","scale":"0.43","geometry":{"type":"Point","coordinates":[45,25]},"id":33,"properties":{"name":"Saudi Arabia"}},{"color":"red","scale":"0.43","geometry":{"type":"Point","coordinates":[37.6155586242676,55.7522201538086]},"id":34,"properties":{"name":"Moscow"}},{"geometry":{"type":"Point","coordinates":[79.3833312988281,28.4166698455811]},"id":35,"properties":{"name":"Bareilly"},"color":"red","scale":"0.43"},{"color":"red","scale":"0.43","id":36,"geometry":{"coordinates":[20.0685901641846,32.114860534668],"type":"Point"},"properties":{"name":"Benghazi"}},{"color":"red","scale":"0.43","id":37,"geometry":{"coordinates":[-114.981941223145,36.0396995544434],"type":"Point"},"properties":{"name":"Henderson"}},{"color":"red","scale":"0.43","id":38,"geometry":{"coordinates":[-93.4840621948242,31.5687808990479],"type":"Point"},"properties":{"name":"Many"}},{"color":"red","scale":"0.43","id":39,"geometry":{"coordinates":[13.410530090332,52.5243682861328],"type":"Point"},"properties":{"name":"Berlin"}},{"id":40,"geometry":{"type":"Point","coordinates":[24,-29]},"properties":{"name":"South Africa"},"color":"red","scale":"0.43"},{"geometry":{"type":"Point","coordinates":[-99.2506103515625,31.2504405975342]},"id":41,"properties":{"name":"Texas"},"color":"red","scale":"0.43"},{"geometry":{"type":"Point","coordinates":[32,49]},"id":42,"properties":{"name":"Ukraine"},"color":"red","scale":"0.29"},{"properties":{"name":"Egypt"},"geometry":{"type":"Point","coordinates":[30,27]},"id":43,"scale":"0.29","color":"red"},{"scale":"0.29","color":"red","properties":{"name":"Gosh"},"id":44,"geometry":{"type":"Point","coordinates":[44.9991188049316,40.7289505004883]}},{"color":"red","scale":"0.29","geometry":{"coordinates":[-85.689208984375,40.0893287658691],"type":"Point"},"id":45,"properties":{"name":"City of Anderson"}},{"color":"red","scale":"0.29","geometry":{"coordinates":[-71.4998016357422,43.6670188903809],"type":"Point"},"id":46,"properties":{"name":"New Hampshire"}},{"properties":{"name":"Le Temple-sur-Lot"},"id":47,"geometry":{"coordinates":[0.524680018424988,44.3792686462402],"type":"Point"},"scale":"0.29","color":"red"},{"color":"red","scale":"0.29","geometry":{"type":"Point","coordinates":[-122.419418334961,37.7749290466309]},"id":48,"properties":{"name":"San Francisco"}},{"id":49,"geometry":{"type":"Point","coordinates":[36.2912788391113,33.5102005004883]},"properties":{"name":"Damascus"},"color":"red","scale":"0.29"},{"color":"red","scale":"0.29","geometry":{"type":"Point","coordinates":[-74.0132675170898,40.7129096984863]},"id":51,"properties":{"name":"One World Trade Center"}},{"properties":{"name":"Hewitt"},"geometry":{"type":"Point","coordinates":[-95.0866928100586,46.3255195617676]},"id":52,"scale":"0.29","color":"red"},{"properties":{"name":"Gare de Lille Europe"},"geometry":{"type":"Point","coordinates":[3.07593989372253,50.6386795043945]},"id":53,"scale":"0.29","color":"red"},{"scale":"0.29","color":"red","properties":{"name":"Statue of Liberty"},"geometry":{"coordinates":[-74.0443115234375,40.6889915466309],"type":"Point"},"id":54},{"color":"red","scale":"0.29","id":55,"geometry":{"type":"Point","coordinates":[35.2163314819336,31.7690391540527]},"properties":{"name":"Jerusalem"}},{"scale":"0.29","color":"red","properties":{"name":"Alīke Rohilla"},"geometry":{"coordinates":[73.8364181518555,30.4477005004883],"type":"Point"},"id":56},{"id":57,"geometry":{"type":"Point","coordinates":[-74.0059661865234,40.7142715454102]},"properties":{"name":"New York City"},"color":"red","scale":"0.29"},{"scale":"0.29","color":"red","properties":{"name":"Paulista Wall Street Suítes"},"geometry":{"type":"Point","coordinates":[-46.6539001464844,-23.5615997314453]},"id":58},{"scale":"0.14","color":"red","properties":{"name":"Dallas"},"geometry":{"type":"Point","coordinates":[-96.8066711425781,32.7830581665039]},"id":59},{"scale":"0.14","color":"red","properties":{"name":"Scugog Centre"},"geometry":{"type":"Point","coordinates":[-78.8966674804688,44.1552810668945]},"id":61},{"geometry":{"coordinates":[-87.6264038085938,41.8889007568359],"type":"Point"},"id":62,"properties":{"name":"Trump International Hotel and Tower"},"color":"red","scale":"0.14"},{"color":"red","scale":"0.14","geometry":{"type":"Point","coordinates":[127.75,36.5]},"id":63,"properties":{"name":"South Korea"}},{"properties":{"name":"Mobile"},"id":64,"geometry":{"coordinates":[-88.0430526733398,30.6943607330322],"type":"Point"},"scale":"0.14","color":"red"},{"color":"red","scale":"0.14","id":65,"geometry":{"type":"Point","coordinates":[-110.873832702637,43.6502113342285]},"properties":{"name":"Forget-me-not Lakes"}},{"id":66,"geometry":{"type":"Point","coordinates":[-106.60555267334,31.9992694854736]},"properties":{"name":"Anthony"},"color":"red","scale":"0.14"},{"color":"red","scale":"0.14","geometry":{"type":"Point","coordinates":[-2.69531011581421,54.7584381103516]},"id":67,"properties":{"name":"United Kingdom"}},{"color":"red","scale":"0.14","id":68,"geometry":{"type":"Point","coordinates":[36,31]},"properties":{"name":"Jordan"}},{"scale":"0.14","color":"red","properties":{"name":"Jackson County"},"geometry":{"type":"Point","coordinates":[-84.4234390258789,42.2484893798828]},"id":69},{"properties":{"name":"Rowan County"},"geometry":{"coordinates":[-83.4210815429688,38.1962585449219],"type":"Point"},"id":70,"scale":"0.14","color":"red"},{"scale":"0.14","color":"red","properties":{"name":"Macao"},"geometry":{"coordinates":[113.559722900391,22.1577796936035],"type":"Point"},"id":71},{"properties":{"name":"Yemen"},"id":72,"geometry":{"type":"Point","coordinates":[47.5,15.5]},"scale":"0.14","color":"red"},{"geometry":{"coordinates":[-65.5978698730469,43.4490585327148],"type":"Point"},"id":73,"properties":{"name":"South Side"},"color":"red","scale":"0.14"},{"scale":"0.14","color":"red","properties":{"name":"Japan"},"geometry":{"coordinates":[139.75309753418,35.685359954834],"type":"Point"},"id":74},{"properties":{"name":"Apostolic Nunciature - The Holy See"},"id":75,"geometry":{"type":"Point","coordinates":[-77.0649795532227,38.9237213134766]},"scale":"0.14","color":"red"},{"properties":{"name":"Spa & Hotel Maihama Eurasia"},"id":76,"geometry":{"type":"Point","coordinates":[139.895294189453,35.6270294189453]},"scale":"0.14","color":"red"},{"scale":"0.14","color":"red","properties":{"name":"Massachusetts Institute of Technology"},"geometry":{"type":"Point","coordinates":[-71.0917205810547,42.3595390319824]},"id":78},{"geometry":{"type":"Point","coordinates":[-81.6954116821289,41.4995002746582]},"id":79,"properties":{"name":"Cleveland"},"color":"red","scale":"0.14"},{"scale":"0.14","color":"red","properties":{"name":"Yuma County"},"geometry":{"type":"Point","coordinates":[-113.905563354492,32.769401550293]},"id":80},{"properties":{"name":"Poland"},"geometry":{"coordinates":[20,52],"type":"Point"},"id":81,"scale":"0.14","color":"red"},{"color":"red","scale":"0.14","geometry":{"coordinates":[-77.0352478027344,38.8895606994629],"type":"Point"},"id":82,"properties":{"name":"Washington Monument"}},{"id":83,"geometry":{"type":"Point","coordinates":[-113.905563354492,32.769401550293]},"properties":{"name":"Yuma County"},"color":"red","scale":"0.14"},{"properties":{"name":"Van"},"geometry":{"type":"Point","coordinates":[43.7177886962891,38.4073600769043]},"id":84,"scale":"0.14","color":"red"},{"id":85,"geometry":{"coordinates":[-82.4584274291992,27.9475193023682],"type":"Point"},"properties":{"name":"Tampa"},"color":"red","scale":"0.14"},{"color":"red","scale":"0.14","geometry":{"coordinates":[-1.89982998371124,52.4814186096191],"type":"Point"},"id":86,"properties":{"name":"Birmingham"}},{"properties":{"name":"Libya"},"geometry":{"coordinates":[17,28],"type":"Point"},"id":88,"scale":"0.14","color":"red"},{"properties":{"name":"United States"},"geometry":{"coordinates":[-98.5,39.7599983215332],"type":"Point"},"id":89,"scale":"0.14","color":"red"},{"color":"red","scale":"0.14","id":91,"geometry":{"type":"Point","coordinates":[-86.7502593994141,32.7504081726074]},"properties":{"name":"Alabama"}},{"scale":"0.14","color":"red","properties":{"name":"Niederösterreich"},"id":92,"geometry":{"type":"Point","coordinates":[15.75,48.3333282470703]}},{"id":93,"geometry":{"coordinates":[10.5,51.5],"type":"Point"},"properties":{"name":"Germany"},"color":"red","scale":"0.14"},{"properties":{"name":"Velikiy Novgorod"},"id":94,"geometry":{"coordinates":[31.2710399627686,58.5213088989258],"type":"Point"},"scale":"0.14","color":"red"},{"color":"red","scale":"0.14","geometry":{"coordinates":[-86.443603515625,36.9903182983398],"type":"Point"},"id":95,"properties":{"name":"Bowling Green"}},{"id":96,"geometry":{"coordinates":[-103.219100952148,32.7951202392578],"type":"Point"},"properties":{"name":"Humble City"},"color":"red","scale":"0.14"},{"color":"red","scale":"0.14","id":97,"geometry":{"type":"Point","coordinates":[-87.6500473022461,41.8500289916992]},"properties":{"name":"Chicago"}},{"color":"red","scale":"0.14","geometry":{"type":"Point","coordinates":[-81.7292327880859,25.9286308288574]},"id":98,"properties":{"name":"Marco Island Florida Resort & Spa"}},{"scale":"0.14","color":"red","properties":{"name":"Des Moines"},"id":99,"geometry":{"coordinates":[-93.6091079711914,41.6005401611328],"type":"Point"}},{"id":100,"geometry":{"type":"Point","coordinates":[-8,53]},"properties":{"name":"Ireland"},"color":"red","scale":"0.14"},{"properties":{"name":"Great Wall of China Bridge"},"id":101,"geometry":{"type":"Point","coordinates":[-81.8007736206055,36.0967903137207]},"scale":"0.14","color":"red"},{"properties":{"name":"Baltimore"},"geometry":{"coordinates":[-76.612190246582,39.2903785705566],"type":"Point"},"id":102,"scale":"0.14","color":"red"},{"color":"red","scale":"0.14","geometry":{"type":"Point","coordinates":[-111.5009765625,34.500301361084]},"id":103,"properties":{"name":"Arizona"}},{"color":"red","scale":"0.14","geometry":{"coordinates":[-75.1935119628906,39.9509506225586],"type":"Point"},"id":104,"properties":{"name":"University of Pennsylvania"}},{"scale":"0.14","color":"red","properties":{"name":"Las Américas International Airport"},"id":105,"geometry":{"type":"Point","coordinates":[-69.6689300537109,18.4296607971191]}},{"scale":"0.14","color":"red","properties":{"name":"Dragomirești-Deal"},"id":106,"geometry":{"coordinates":[25.9447803497314,44.4623985290527],"type":"Point"}},{"id":107,"geometry":{"coordinates":[-98.5,39.7599983215332],"type":"Point"},"properties":{"name":"United States"},"color":"blue","scale":"28.29"},{"id":108,"geometry":{"coordinates":[53,32],"type":"Point"},"properties":{"name":"Iran"},"color":"blue","scale":"7.75"},{"properties":{"name":"Canada"},"id":109,"geometry":{"type":"Point","coordinates":[-113.642578125,60.1086692810059]},"scale":"5.27","color":"blue"},{"scale":"4.86","color":"blue","properties":{"name":"China"},"geometry":{"coordinates":[105,35],"type":"Point"},"id":110},{"geometry":{"coordinates":[-99.1276626586914,19.4284706115723],"type":"Point"},"id":111,"properties":{"name":"Mexico City"},"color":"blue","scale":"2.22"},{"color":"blue","scale":"1.86","geometry":{"type":"Point","coordinates":[34.75,31.5]},"id":112,"properties":{"name":"Israel"}},{"id":113,"geometry":{"type":"Point","coordinates":[54.5,23.75]},"properties":{"name":"United Arab Emirates"},"color":"blue","scale":"1.69"},{"properties":{"name":"Syria"},"geometry":{"type":"Point","coordinates":[38,35]},"id":114,"scale":"1.59","color":"blue"},{"color":"blue","scale":"1.46","geometry":{"type":"Point","coordinates":[-77.0363693237305,38.8976097106934]},"id":115,"properties":{"name":"The White House"}},{"scale":"1.45","color":"blue","properties":{"name":"Washington, D.C."},"id":116,"geometry":{"type":"Point","coordinates":[-77.0363693237305,38.8951110839844]}},{"geometry":{"coordinates":[-82.5000991821289,28.7505397796631],"type":"Point"},"id":117,"properties":{"name":"Florida"},"color":"blue","scale":"1.37"},{"color":"blue","scale":"1.37","id":118,"geometry":{"coordinates":[100,60],"type":"Point"},"properties":{"name":"Russia"}},{"geometry":{"type":"Point","coordinates":[13.410530090332,52.5243682861328]},"id":119,"properties":{"name":"Berlin"},"color":"blue","scale":"1.21"},{"properties":{"name":"Iraq"},"geometry":{"type":"Point","coordinates":[44,33]},"id":120,"scale":"1.19","color":"blue"},{"properties":{"name":"Wisconsin"},"geometry":{"coordinates":[-90.0004119873047,44.5002403259277],"type":"Point"},"id":121,"scale":"1.14","color":"blue"},{"geometry":{"coordinates":[79,22],"type":"Point"},"id":122,"properties":{"name":"India"},"color":"blue","scale":"1.05"},{"color":"blue","scale":"1.01","id":123,"geometry":{"coordinates":[-83.0671310424805,40.2964515686035],"type":"Point"},"properties":{"name":"Ohio Wesleyan University"}},{"properties":{"name":"Benghazi"},"geometry":{"type":"Point","coordinates":[20.0685901641846,32.114860534668]},"id":124,"scale":"0.95","color":"blue"},{"scale":"0.89","color":"blue","properties":{"name":"New Jersey"},"id":125,"geometry":{"type":"Point","coordinates":[-74.499870300293,40.1670608520508]}},{"geometry":{"coordinates":[-69.6689300537109,18.4296607971191],"type":"Point"},"id":126,"properties":{"name":"Las Américas International Airport"},"color":"blue","scale":"0.79"},{"scale":"0.70","color":"blue","properties":{"name":"Chile"},"geometry":{"coordinates":[-71,-30],"type":"Point"},"id":127},{"geometry":{"type":"Point","coordinates":[-99.2506103515625,31.2504405975342]},"id":128,"properties":{"name":"Texas"},"color":"blue","scale":"0.67"},{"properties":{"name":"Kentucky"},"geometry":{"type":"Point","coordinates":[-84.8776168823242,38.2004203796387]},"id":129,"scale":"0.61","color":"blue"},{"color":"blue","scale":"0.60","geometry":{"type":"Point","coordinates":[145.539993286133,-41.8400001525879]},"id":130,"properties":{"name":"Mount Read"}},{"properties":{"name":"Iceland"},"id":131,"geometry":{"type":"Point","coordinates":[-18,65]},"scale":"0.57","color":"blue"},{"properties":{"name":"Al Ghurair Arjaan By Rotana and Al Ghurair Rayhaan By Rotana"},"id":132,"geometry":{"coordinates":[55.316780090332,25.2694892883301],"type":"Point"},"scale":"0.56","color":"blue"},{"properties":{"name":"Ober-Says"},"id":133,"geometry":{"type":"Point","coordinates":[9.5823802947998,46.9073715209961]},"scale":"0.55","color":"blue"},{"geometry":{"coordinates":[-118.781478881836,34.2694511413574],"type":"Point"},"id":134,"properties":{"name":"Simi Valley"},"color":"blue","scale":"0.52"},{"id":135,"geometry":{"coordinates":[-118.282020568848,33.8314094543457],"type":"Point"},"properties":{"name":"Carson"},"color":"blue","scale":"0.50"},{"scale":"0.50","color":"blue","properties":{"name":"Yelling"},"geometry":{"type":"Point","coordinates":[-0.153209999203682,52.2462005615234]},"id":136},{"scale":"0.49","color":"blue","properties":{"name":"Dragomirești-Deal"},"geometry":{"type":"Point","coordinates":[25.9447803497314,44.4623985290527]},"id":137},{"properties":{"name":"Say Girdān"},"geometry":{"type":"Point","coordinates":[45.1200790405273,34.8430786132812]},"id":138,"scale":"0.48","color":"blue"},{"scale":"0.48","color":"blue","properties":{"name":"Humble City"},"id":139,"geometry":{"type":"Point","coordinates":[-103.219100952148,32.7951202392578]}},{"color":"blue","scale":"0.46","geometry":{"type":"Point","coordinates":[-93.411247253418,35.0026016235352]},"id":140,"properties":{"name":"Yell County"}},{"properties":{"name":"Austria"},"geometry":{"type":"Point","coordinates":[13.3333301544189,47.3333282470703]},"id":141,"scale":"0.43","color":"blue"},{"properties":{"name":"Cuba"},"id":142,"geometry":{"coordinates":[-79.5,22],"type":"Point"},"scale":"0.43","color":"blue"},{"scale":"0.40","color":"blue","properties":{"name":"Uzh"},"id":143,"geometry":{"coordinates":[30.2645606994629,51.262378692627],"type":"Point"}},{"color":"blue","scale":"0.40","geometry":{"coordinates":[-74.0059661865234,40.7142715454102],"type":"Point"},"id":144,"properties":{"name":"New York City"}},{"geometry":{"coordinates":[127,40],"type":"Point"},"id":145,"properties":{"name":"North Korea"},"color":"blue","scale":"0.40"},{"scale":"0.37","color":"blue","properties":{"name":"Louisiana"},"geometry":{"type":"Point","coordinates":[-92.0003967285156,31.0004692077637]},"id":146},{"color":"blue","scale":"0.36","geometry":{"type":"Point","coordinates":[54.5,23.75]},"id":147,"properties":{"name":"United Arab Emirates"}},{"color":"blue","scale":"0.34","geometry":{"type":"Point","coordinates":[79.3833312988281,28.4166698455811]},"id":148,"properties":{"name":"Bareilly"}},{"scale":"0.32","color":"blue","properties":{"name":"Oregon"},"id":149,"geometry":{"type":"Point","coordinates":[-120.501388549805,44.000129699707]}},{"color":"blue","scale":"0.31","geometry":{"type":"Point","coordinates":[-74.0443115234375,40.6889915466309]},"id":150,"properties":{"name":"Statue of Liberty"}},{"properties":{"name":"United Kingdom"},"id":151,"geometry":{"type":"Point","coordinates":[-2.69531011581421,54.7584381103516]},"scale":"0.30","color":"blue"},{"properties":{"name":"Paulista Wall Street Suítes"},"geometry":{"type":"Point","coordinates":[-46.6539001464844,-23.5615997314453]},"id":152,"scale":"0.30","color":"blue"},{"geometry":{"coordinates":[-104.821357727051,38.8338813781738],"type":"Point"},"id":153,"properties":{"name":"Colorado Springs"},"color":"blue","scale":"0.29"},{"geometry":{"coordinates":[-93.4840621948242,31.5687808990479],"type":"Point"},"id":154,"properties":{"name":"Many"},"color":"blue","scale":"0.27"},{"properties":{"name":"Phumĭ Yéa P’aeu"},"id":155,"geometry":{"type":"Point","coordinates":[104.909683227539,11.0608901977539]},"scale":"0.25","color":"blue"},{"id":156,"geometry":{"type":"Point","coordinates":[12.3422498703003,47.5291900634766]},"properties":{"name":"Going am Wilden Kaiser"},"color":"blue","scale":"0.25"},{"color":"blue","scale":"0.25","id":157,"geometry":{"coordinates":[45,25],"type":"Point"},"properties":{"name":"Saudi Arabia"}},{"color":"blue","scale":"0.24","id":158,"geometry":{"type":"Point","coordinates":[-74.4229278564453,39.3642807006836]},"properties":{"name":"Atlantic City"}},{"geometry":{"type":"Point","coordinates":[-93.50048828125,42.0002708435059]},"id":159,"properties":{"name":"Iowa"},"color":"blue","scale":"0.23"},{"color":"blue","scale":"0.21","id":160,"geometry":{"coordinates":[-75.1935119628906,39.9509506225586],"type":"Point"},"properties":{"name":"University of Pennsylvania"}},{"id":161,"geometry":{"coordinates":[3.07593989372253,50.6386795043945],"type":"Point"},"properties":{"name":"Gare de Lille Europe"},"color":"blue","scale":"0.19"},{"scale":"0.19","color":"blue","properties":{"name":"South Carolina"},"geometry":{"type":"Point","coordinates":[-81.0000915527344,34.000431060791]},"id":162},{"properties":{"name":"Ukraine"},"id":163,"geometry":{"coordinates":[32,49],"type":"Point"},"scale":"0.19","color":"blue"},{"properties":{"name":"United Nations Headquarters"},"id":164,"geometry":{"type":"Point","coordinates":[-73.9679183959961,40.7495498657227]},"scale":"0.19","color":"blue"},{"properties":{"name":"Afghanistan"},"id":166,"geometry":{"type":"Point","coordinates":[66,33]},"scale":"0.18","color":"blue"},{"properties":{"name":"Greta"},"geometry":{"type":"Point","coordinates":[151.389236450195,-32.6778297424316]},"id":167,"scale":"0.18","color":"blue"},{"geometry":{"coordinates":[134.456909179688,7.33135986328125],"type":"Point"},"id":168,"properties":{"name":"Malakal Port - Mandatory Palau Yacht Clearance"},"color":"blue","scale":"0.18"},{"properties":{"name":"Great Shoals Light"},"geometry":{"coordinates":[-75.8793792724609,38.2142906188965],"type":"Point"},"id":169,"scale":"0.17","color":"blue"},{"scale":"0.17","color":"blue","properties":{"name":"Charleroi"},"id":170,"geometry":{"coordinates":[4.44447994232178,50.4113616943359],"type":"Point"}},{"scale":"0.17","color":"blue","properties":{"name":"Embassy of the Union of Soviet Socialist Republics Building"},"id":171,"geometry":{"type":"Point","coordinates":[-77.039421081543,38.9034385681152]}},{"scale":"0.17","color":"blue","properties":{"name":"Washington Monument"},"id":172,"geometry":{"coordinates":[-77.0352478027344,38.8895606994629],"type":"Point"}},{"properties":{"name":"West Virginia"},"id":173,"geometry":{"coordinates":[-80.5000915527344,38.5003814697266],"type":"Point"},"scale":"0.16","color":"blue"},{"properties":{"name":"Alīke Rohilla"},"id":174,"geometry":{"coordinates":[73.8364181518555,30.4477005004883],"type":"Point"},"scale":"0.16","color":"blue"},{"geometry":{"type":"Point","coordinates":[31.2710399627686,58.5213088989258]},"id":175,"properties":{"name":"Velikiy Novgorod"},"color":"blue","scale":"0.16"},{"geometry":{"coordinates":[49.3386001586914,37.2397994995117],"type":"Point"},"id":176,"properties":{"name":"Send"},"color":"blue","scale":"0.15"},{"properties":{"name":"Jerusalem"},"geometry":{"type":"Point","coordinates":[35.2163314819336,31.7690391540527]},"id":177,"scale":"0.15","color":"blue"},{"color":"blue","scale":"0.14","id":178,"geometry":{"coordinates":[73.509521484375,-53.1171112060547],"type":"Point"},"properties":{"name":"Heard Island and McDonald Islands"}},{"properties":{"name":"Apostolic Nunciature - The Holy See"},"geometry":{"type":"Point","coordinates":[-77.0649795532227,38.9237213134766]},"id":179,"scale":"0.14","color":"blue"},{"properties":{"name":"Frankfurt am Main"},"geometry":{"type":"Point","coordinates":[8.68416976928711,50.1155204772949]},"id":180,"scale":"0.14","color":"blue"},{"properties":{"name":"Hamilton"},"id":181,"geometry":{"coordinates":[175.283325195312,-37.7833290100098],"type":"Point"},"scale":"0.14","color":"blue"},{"properties":{"name":"Donalds"},"geometry":{"coordinates":[-82.3473434448242,34.3770599365234],"type":"Point"},"id":182,"scale":"0.14","color":"blue"},{"scale":"0.13","color":"blue","properties":{"name":"South Africa"},"id":183,"geometry":{"coordinates":[24,-29],"type":"Point"}},{"properties":{"name":"County Down"},"geometry":{"coordinates":[-5.75,54.3333282470703],"type":"Point"},"id":184,"scale":"0.13","color":"blue"},{"geometry":{"type":"Point","coordinates":[96.7360992431641,56.0738983154297]},"id":185,"properties":{"name":"Poymo-Tiny"},"color":"blue","scale":"0.13"},{"color":"blue","scale":"0.13","geometry":{"type":"Point","coordinates":[-86.2502670288086,40.0003204345703]},"id":186,"properties":{"name":"Indiana"}},{"geometry":{"coordinates":[10.5,51.5],"type":"Point"},"id":187,"properties":{"name":"Germany"},"color":"blue","scale":"0.13"},{"color":"blue","scale":"0.13","id":188,"geometry":{"type":"Point","coordinates":[-77.0499801635742,38.8892784118652]},"properties":{"name":"Lincoln Memorial"}},{"color":"blue","scale":"0.13","geometry":{"coordinates":[7.86712980270386,49.8414001464844],"type":"Point"},"id":189,"properties":{"name":"Bad Kreuznach"}},{"scale":"0.12","color":"blue","properties":{"name":"Walker County"},"id":190,"geometry":{"type":"Point","coordinates":[-85.3009796142578,34.7356605529785]}},{"color":"blue","scale":"0.12","geometry":{"coordinates":[-71.4998016357422,43.6670188903809],"type":"Point"},"id":191,"properties":{"name":"New Hampshire"}},{"properties":{"name":"Isle of Man"},"geometry":{"coordinates":[-4.5,54.25],"type":"Point"},"id":192,"scale":"0.12","color":"blue"},{"scale":"0.12","color":"blue","properties":{"name":"Malaysia"},"geometry":{"coordinates":[112.5,2.5],"type":"Point"},"id":193},{"scale":"0.12","color":"blue","properties":{"name":"Czech Republic"},"geometry":{"type":"Point","coordinates":[15,49.75]},"id":194},{"properties":{"name":"Brooklyn"},"geometry":{"type":"Point","coordinates":[-73.949577331543,40.6501007080078]},"id":195,"scale":"0.12","color":"blue"},{"id":196,"geometry":{"coordinates":[80.75,27.25],"type":"Point"},"properties":{"name":"Uttar Pradesh"},"color":"blue","scale":"0.12"},{"properties":{"name":"Gosh"},"id":197,"geometry":{"coordinates":[44.9991188049316,40.7289505004883],"type":"Point"},"scale":"0.12","color":"blue"},{"id":198,"geometry":{"type":"Point","coordinates":[-94.5872192382812,47.1013488769531]},"properties":{"name":"Walker"},"color":"blue","scale":"0.12"},{"color":"blue","scale":"0.11","geometry":{"coordinates":[-90.1848068237305,32.2987594604492],"type":"Point"},"id":199,"properties":{"name":"Jackson"}},{"properties":{"name":"Saint-Laurent"},"id":200,"geometry":{"coordinates":[-73.6658477783203,45.5000801086426],"type":"Point"},"scale":"0.11","color":"blue"},{"properties":{"name":"Turkey"},"geometry":{"coordinates":[35,39],"type":"Point"},"id":201,"scale":"0.10","color":"blue"},{"geometry":{"coordinates":[12.8631000518799,48.0674095153809],"type":"Point"},"id":202,"properties":{"name":"Fucking"},"color":"blue","scale":"0.10"},{"color":"blue","scale":"0.10","geometry":{"coordinates":[-65.5978698730469,43.4490585327148],"type":"Point"},"id":203,"properties":{"name":"South Side"}},{"id":204,"geometry":{"coordinates":[-2.39896988868713,54.7696990966797],"type":"Point"},"properties":{"name":"Garrigill"},"color":"blue","scale":"0.10"},{"color":"blue","scale":"0.10","geometry":{"coordinates":[-7,62],"type":"Point"},"id":205,"properties":{"name":"Faroe Islands"}},{"color":"blue","scale":"0.10","geometry":{"coordinates":[5.39027976989746,51.5074996948242],"type":"Point"},"id":206,"properties":{"name":"Best"}},{"id":207,"geometry":{"type":"Point","coordinates":[44.40087890625,33.3405799865723]},"properties":{"name":"Baghdad"},"color":"blue","scale":"0.09"},{"properties":{"name":"Pushtah-ye Barf-Darāz"},"id":208,"geometry":{"type":"Point","coordinates":[65.3702774047852,35.5327606201172]},"scale":"0.09","color":"blue"},{"properties":{"name":"Hilton Garden Inn Richmond South/Southpark"},"geometry":{"coordinates":[-77.3898010253906,37.2495994567871],"type":"Point"},"id":209,"scale":"0.09","color":"blue"},{"geometry":{"type":"Point","coordinates":[24.0232391357422,49.8382606506348]},"id":210,"properties":{"name":"L'viv"},"color":"blue","scale":"0.09"},{"geometry":{"coordinates":[-85.5311813354492,42.2454490661621],"type":"Point"},"id":211,"properties":{"name":"Kalamazoo County"},"color":"blue","scale":"0.09"},{"geometry":{"type":"Point","coordinates":[-118.326736450195,34.0983390808105]},"id":212,"properties":{"name":"Hollywood"},"color":"blue","scale":"0.09"},{"color":"blue","scale":"0.09","geometry":{"coordinates":[-122.478858947754,37.8196487426758],"type":"Point"},"id":213,"properties":{"name":"Golden Gate Bridge"}},{"id":214,"geometry":{"type":"Point","coordinates":[-87.6500473022461,41.8500289916992]},"properties":{"name":"Chicago"},"color":"blue","scale":"0.08"},{"geometry":{"coordinates":[-1.09025001525879,43.5402183532715],"type":"Point"},"id":215,"properties":{"name":"Gave de Pau"},"color":"blue","scale":"0.08"},{"id":216,"geometry":{"coordinates":[135,-25],"type":"Point"},"properties":{"name":"Australia"},"color":"blue","scale":"0.08"},{"scale":"0.07","color":"blue","properties":{"name":"Libya"},"geometry":{"type":"Point","coordinates":[17,28]},"id":217},{"color":"blue","scale":"0.07","geometry":{"coordinates":[-89.750358581543,32.7504081726074],"type":"Point"},"id":218,"properties":{"name":"Mississippi"}},{"geometry":{"type":"Point","coordinates":[-80.0003204345703,35.5006904602051]},"id":219,"properties":{"name":"North Carolina"},"color":"blue","scale":"0.07"},{"color":"blue","scale":"0.07","id":220,"geometry":{"type":"Point","coordinates":[3.88889002799988,51.5041694641113]},"properties":{"name":"Goes"}},{"scale":"0.07","color":"blue","properties":{"name":"Hawaii"},"id":221,"geometry":{"coordinates":[-156.500274658203,20.750280380249],"type":"Point"}},{"color":"blue","scale":"0.07","id":222,"geometry":{"coordinates":[-61.5188903808594,10.6666803359985],"type":"Point"},"properties":{"name":"Port-of-Spain"}},{"id":223,"geometry":{"coordinates":[-98.5,39.7599983215332],"type":"Point"},"properties":{"name":"United States"},"color":"blue","scale":"0.07"},{"scale":"0.07","color":"blue","properties":{"name":"Toronto"},"geometry":{"type":"Point","coordinates":[-79.4162979125977,43.7001113891602]},"id":224},{"scale":"0.07","color":"blue","properties":{"name":"Pakistan"},"id":225,"geometry":{"coordinates":[70,30],"type":"Point"}},{"properties":{"name":"Cleveland"},"id":226,"geometry":{"coordinates":[-81.6954116821289,41.4995002746582],"type":"Point"},"scale":"0.07","color":"blue"},{"scale":"0.07","color":"blue","properties":{"name":"Admire"},"geometry":{"type":"Point","coordinates":[-96.1030502319336,38.6411209106445]},"id":227},{"scale":"0.07","color":"blue","properties":{"name":"Gilly-sur-Loire"},"id":228,"geometry":{"coordinates":[3.77975988388062,46.5380897521973],"type":"Point"}},{"id":229,"geometry":{"coordinates":[-4.31666994094849,56.4666709899902],"type":"Point"},"properties":{"name":"Killin"},"color":"blue","scale":"0.07"},{"id":230,"geometry":{"type":"Point","coordinates":[139.895294189453,35.6270294189453]},"properties":{"name":"Spa & Hotel Maihama Eurasia"},"color":"blue","scale":"0.07"},{"scale":"0.07","color":"blue","properties":{"name":"Lake Ontario"},"geometry":{"type":"Point","coordinates":[-77.99951171875,43.7501182556152]},"id":231},{"color":"blue","scale":"0.06","geometry":{"coordinates":[-76.612190246582,39.2903785705566],"type":"Point"},"id":232,"properties":{"name":"Baltimore"}},{"color":"blue","scale":"0.06","geometry":{"coordinates":[-118.243682861328,34.0522308349609],"type":"Point"},"id":233,"properties":{"name":"Los Angeles"}},{"color":"blue","scale":"0.06","id":234,"geometry":{"type":"Point","coordinates":[-92.5004577636719,38.2503089904785]},"properties":{"name":"Missouri"}},{"id":235,"geometry":{"coordinates":[-104.617797851562,50.450080871582],"type":"Point"},"properties":{"name":"Regina"},"color":"blue","scale":"0.06"},{"properties":{"name":"Guantanamo Bay"},"id":236,"geometry":{"type":"Point","coordinates":[-75.1227798461914,20.0077095031738]},"scale":"0.06","color":"blue"},{"color":"blue","scale":"0.06","id":237,"geometry":{"type":"Point","coordinates":[-111.5009765625,34.500301361084]},"properties":{"name":"Arizona"}},{"id":238,"geometry":{"type":"Point","coordinates":[-96.8066711425781,32.7830581665039]},"properties":{"name":"Dallas"},"color":"blue","scale":"0.06"},{"geometry":{"coordinates":[-122.190986633301,47.7594604492188],"type":"Point"},"id":239,"properties":{"name":"University of Washington - Bothell Campus"},"color":"blue","scale":"0.06"},{"color":"blue","scale":"0.06","geometry":{"coordinates":[-83.0457534790039,42.331428527832],"type":"Point"},"id":240,"properties":{"name":"Detroit"}},{"scale":"0.06","color":"blue","properties":{"name":"Miami"},"geometry":{"coordinates":[-80.1936569213867,25.7742691040039],"type":"Point"},"id":241},{"id":242,"geometry":{"coordinates":[7.96389007568359,45.040771484375],"type":"Point"},"properties":{"name":"Castelnuovo Don Bosco"},"color":"blue","scale":"0.05"},{"color":"blue","scale":"0.05","geometry":{"coordinates":[-92.5004425048828,34.7503700256348],"type":"Point"},"id":243,"properties":{"name":"Arkansas"}},{"properties":{"name":"Puerto Rico"},"geometry":{"coordinates":[-66.4998931884766,18.2482891082764],"type":"Point"},"id":244,"scale":"0.05","color":"blue"},{"color":"blue","scale":"0.05","id":245,"geometry":{"coordinates":[-72.59765625,-8.05922985076904],"type":"Point"},"properties":{"name":"Latin America and the Caribbean"}},{"color":"blue","scale":"0.05","geometry":{"type":"Point","coordinates":[-70.6666717529297,19]},"id":246,"properties":{"name":"Dominican Republic"}},{"scale":"0.05","color":"blue","properties":{"name":"Tonga"},"id":247,"geometry":{"coordinates":[-175,-20],"type":"Point"}},{"scale":"0.05","color":"blue","properties":{"name":"Perm Krai"},"geometry":{"type":"Point","coordinates":[57,59]},"id":248},{"geometry":{"coordinates":[113.559722900391,22.1577796936035],"type":"Point"},"id":249,"properties":{"name":"Macao"},"color":"blue","scale":"0.05"},{"color":"blue","scale":"0.05","geometry":{"coordinates":[-86.7502593994141,32.7504081726074],"type":"Point"},"id":250,"properties":{"name":"Alabama"}},{"geometry":{"coordinates":[-111.651031494141,40.2457885742188],"type":"Point"},"id":251,"properties":{"name":"Brigham Young University"},"color":"blue","scale":"0.05"},{"id":252,"geometry":{"coordinates":[58.3569984436035,29.1060009002686],"type":"Point"},"properties":{"name":"Bam"},"color":"blue","scale":"0.05"},{"geometry":{"type":"Point","coordinates":[-84.4234390258789,42.2484893798828]},"id":253,"properties":{"name":"Jackson County"},"color":"blue","scale":"0.05"},{"color":"blue","scale":"0.05","id":254,"geometry":{"type":"Point","coordinates":[4.5,50.75]},"properties":{"name":"Belgium"}},{"geometry":{"coordinates":[149.266235351562,-34.7825202941895],"type":"Point"},"id":255,"properties":{"name":"Gunning"},"color":"blue","scale":"0.05"},{"geometry":{"type":"Point","coordinates":[7.62571001052856,51.9623603820801]},"id":256,"properties":{"name":"Münster"},"color":"blue","scale":"0.05"},{"color":"blue","scale":"0.05","geometry":{"type":"Point","coordinates":[-58.1500015258789,-26.3833293914795]},"id":257,"properties":{"name":"Campos Santacruz-cué y María Poi-cué"}},{"geometry":{"coordinates":[-123.035102844238,44.9429016113281],"type":"Point"},"id":258,"properties":{"name":"Salem"},"color":"blue","scale":"0.05"},{"color":"blue","scale":"0.05","geometry":{"type":"Point","coordinates":[8,10]},"id":259,"properties":{"name":"Nigeria"}},{"color":"blue","scale":"0.04","id":260,"geometry":{"coordinates":[37.6155586242676,55.7522201538086],"type":"Point"},"properties":{"name":"Moscow"}},{"scale":"0.04","color":"blue","properties":{"name":"Kansas City"},"id":261,"geometry":{"type":"Point","coordinates":[-94.5785675048828,39.0997314453125]}},{"scale":"0.04","color":"blue","properties":{"name":"New Orleans"},"id":262,"geometry":{"type":"Point","coordinates":[-90.0750732421875,29.9546508789062]}},{"geometry":{"coordinates":[-97.8289184570312,31.0672492980957],"type":"Point"},"id":263,"properties":{"name":"Fort Hood, Robert Gray AAF Ft Hood"},"color":"blue","scale":"0.04"},{"scale":"0.04","color":"blue","properties":{"name":"Getty Center"},"id":264,"geometry":{"type":"Point","coordinates":[-118.474998474121,34.0774993896484]}},{"color":"blue","scale":"0.04","geometry":{"coordinates":[0.524680018424988,44.3792686462402],"type":"Point"},"id":265,"properties":{"name":"Le Temple-sur-Lot"}},{"color":"blue","scale":"0.04","geometry":{"type":"Point","coordinates":[-80.6923522949219,36.6654815673828]},"id":266,"properties":{"name":"Junction of Virginia State Route 608 and U.S. Route 52"}},{"color":"blue","scale":"0.04","geometry":{"type":"Point","coordinates":[41.5369911193848,58.4806709289551]},"id":267,"properties":{"name":"Buy"}},{"scale":"0.04","color":"blue","properties":{"name":"Saint Marys Falls Canal"},"id":268,"geometry":{"coordinates":[-84.3389282226562,46.5041885375977],"type":"Point"}},{"properties":{"name":"One World Trade Center"},"geometry":{"type":"Point","coordinates":[-74.0132675170898,40.7129096984863]},"id":269,"scale":"0.04","color":"blue"},{"color":"blue","scale":"0.04","geometry":{"coordinates":[-74.499870300293,40.1670608520508],"type":"Point"},"id":270,"properties":{"name":"New Jersey"}},{"color":"blue","scale":"0.04","id":271,"geometry":{"coordinates":[139.75309753418,35.685359954834],"type":"Point"},"properties":{"name":"Japan"}},{"id":272,"geometry":{"type":"Point","coordinates":[-106.60555267334,31.9992694854736]},"properties":{"name":"Anthony"},"color":"blue","scale":"0.04"},{"geometry":{"coordinates":[-73.8166732788086,40.752498626709],"type":"Point"},"id":273,"properties":{"name":"Hindu Temple Society of North America"},"color":"blue","scale":"0.04"},{"scale":"0.04","color":"blue","properties":{"name":"Nigeria"},"geometry":{"type":"Point","coordinates":[8,10]},"id":274},{"properties":{"name":"Birmingham"},"geometry":{"coordinates":[-1.89982998371124,52.4814186096191],"type":"Point"},"id":275,"scale":"0.04","color":"blue"},{"color":"blue","scale":"0.04","geometry":{"type":"Point","coordinates":[-81.8007736206055,36.0967903137207]},"id":276,"properties":{"name":"Great Wall of China Bridge"}},{"color":"blue","scale":"0.04","geometry":{"type":"Point","coordinates":[-83.1169509887695,42.4504203796387]},"id":277,"properties":{"name":"Canadian National Railway Police Department"}},{"properties":{"name":"Las Vegas Valley"},"id":278,"geometry":{"coordinates":[-115.119987487793,35.9122009277344],"type":"Point"},"scale":"0.04","color":"blue"},{"geometry":{"type":"Point","coordinates":[-73.985969543457,40.7487106323242]},"id":279,"properties":{"name":"Empire State Building"},"color":"blue","scale":"0.04"},{"scale":"0.04","color":"blue","properties":{"name":"Italy"},"id":280,"geometry":{"type":"Point","coordinates":[12.8333301544189,42.8333282470703]}},{"color":"blue","scale":"0.04","geometry":{"type":"Point","coordinates":[171.248001098633,7.11299991607666]},"id":281,"properties":{"name":"Japan League of Nations Mandate -1944"}},{"geometry":{"coordinates":[-80.9900131225586,46.4900016784668],"type":"Point"},"id":282,"properties":{"name":"Greater Sudbury"},"color":"blue","scale":"0.04"},{"color":"blue","scale":"0.04","geometry":{"type":"Point","coordinates":[20,47]},"id":283,"properties":{"name":"Hungary"}},{"scale":"0.04","color":"blue","properties":{"name":"Orange County"},"id":284,"geometry":{"coordinates":[-117.776168823242,33.6769104003906],"type":"Point"}},{"properties":{"name":"Reading"},"id":285,"geometry":{"type":"Point","coordinates":[-0.971130013465881,51.4562492370605]},"scale":"0.04","color":"blue"},{"id":287,"geometry":{"coordinates":[-120.768753051758,39.3013687133789],"type":"Point"},"properties":{"name":"Nevada County"},"color":"blue","scale":"0.04"},{"color":"blue","scale":"0.04","id":288,"geometry":{"type":"Point","coordinates":[-89.2501831054688,48.3820190429688]},"properties":{"name":"Thunder Bay"}},{"properties":{"name":"Tennessee"},"geometry":{"type":"Point","coordinates":[-86.2502670288086,35.7503509521484]},"id":289,"scale":"0.04","color":"blue"},{"id":290,"geometry":{"type":"Point","coordinates":[35.8333282470703,33.8333282470703]},"properties":{"name":"Lebanon"},"color":"blue","scale":"0.03"},{"properties":{"name":"High Point High School"},"id":291,"geometry":{"coordinates":[-76.9436264038086,39.0426597595215],"type":"Point"},"scale":"0.03","color":"blue"},{"scale":"0.03","color":"blue","properties":{"name":"Quiet Lake"},"geometry":{"type":"Point","coordinates":[-114.593299865723,44.0546989440918]},"id":292},{"properties":{"name":"Scotland County"},"id":293,"geometry":{"type":"Point","coordinates":[-79.4804306030273,34.8409004211426]},"scale":"0.03","color":"blue"},{"properties":{"name":"Township of Candor"},"id":294,"geometry":{"type":"Point","coordinates":[-95.8592529296875,46.6738586425781]},"scale":"0.03","color":"blue"},{"color":"blue","scale":"0.03","id":295,"geometry":{"type":"Point","coordinates":[-110.873832702637,43.6502113342285]},"properties":{"name":"Forget-me-not Lakes"}},{"color":"blue","scale":"0.03","geometry":{"type":"Point","coordinates":[30,27]},"id":296,"properties":{"name":"Egypt"}},{"scale":"0.03","color":"blue","properties":{"name":"England"},"geometry":{"coordinates":[-0.703119993209839,52.1604499816895],"type":"Point"},"id":297},{"properties":{"name":"Connecticut"},"geometry":{"coordinates":[-72.6664810180664,41.6670417785645],"type":"Point"},"id":298,"scale":"0.03","color":"blue"},{"properties":{"name":"Bland County"},"id":299,"geometry":{"type":"Point","coordinates":[-81.1302795410156,37.1339683532715]},"scale":"0.03","color":"blue"},{"id":300,"geometry":{"coordinates":[7.19250011444092,51.1798286437988],"type":"Point"},"properties":{"name":"Remscheid"},"color":"blue","scale":"0.03"},{"id":301,"geometry":{"coordinates":[-8,53],"type":"Point"},"properties":{"name":"Ireland"},"color":"blue","scale":"0.03"},{"properties":{"name":"Madison"},"id":302,"geometry":{"type":"Point","coordinates":[-89.4012298583984,43.0730514526367]},"scale":"0.03","color":"blue"},{"properties":{"name":"Towamencin Township Hall"},"id":303,"geometry":{"type":"Point","coordinates":[-75.3394012451172,40.2442016601562]},"scale":"0.03","color":"blue"},{"geometry":{"coordinates":[141.912719726562,-34.0324897766113],"type":"Point"},"id":304,"properties":{"name":"Darling River"},"color":"blue","scale":"0.03"},{"scale":"0.03","color":"blue","properties":{"name":"Okay"},"geometry":{"coordinates":[-95.3182983398438,35.8506507873535],"type":"Point"},"id":305},{"geometry":{"type":"Point","coordinates":[76.6666717529297,33.9166717529297]},"id":306,"properties":{"name":"State of Jammu and Kashmīr"},"color":"blue","scale":"0.03"},{"color":"blue","scale":"0.03","id":307,"geometry":{"coordinates":[55.4500007629395,-4.61667013168335],"type":"Point"},"properties":{"name":"Victoria"}},{"geometry":{"type":"Point","coordinates":[-94.2505493164062,46.2502403259277]},"id":308,"properties":{"name":"Minnesota"},"color":"blue","scale":"0.03"},{"geometry":{"coordinates":[-75.1637878417969,39.9523315429688],"type":"Point"},"id":309,"properties":{"name":"Philadelphia"},"color":"blue","scale":"0.03"},{"id":310,"geometry":{"type":"Point","coordinates":[20,52]},"properties":{"name":"Poland"},"color":"blue","scale":"0.03"},{"scale":"0.03","color":"blue","properties":{"name":"Kobe City Gardens Hotel"},"geometry":{"type":"Point","coordinates":[135.176635742188,34.6778297424316]},"id":311},{"scale":"0.03","color":"blue","properties":{"name":"Art Gallery of Ontario"},"id":312,"geometry":{"coordinates":[-79.3922576904297,43.6533699035645],"type":"Point"}},{"geometry":{"coordinates":[7.08104991912842,47.1137084960938],"type":"Point"},"id":313,"properties":{"name":"Nods"},"color":"blue","scale":"0.03"},{"properties":{"name":"Hampton Inn Houston-Texas City"},"geometry":{"type":"Point","coordinates":[-95.0309371948242,29.4073295593262]},"id":314,"scale":"0.03","color":"blue"},{"geometry":{"coordinates":[-122.419418334961,37.7749290466309],"type":"Point"},"id":315,"properties":{"name":"San Francisco"},"color":"blue","scale":"0.03"},{"properties":{"name":"Mo i Rana"},"geometry":{"type":"Point","coordinates":[14.1427803039551,66.3127822875977]},"id":316,"scale":"0.03","color":"blue"},{"properties":{"name":"Río Wana Wana"},"id":317,"geometry":{"type":"Point","coordinates":[-85.0833282470703,12.8000001907349]},"scale":"0.03","color":"blue"},{"color":"blue","scale":"0.03","geometry":{"type":"Point","coordinates":[-73.2034530639648,41.1695404052734]},"id":318,"properties":{"name":"Went Field"}},{"scale":"0.03","color":"blue","properties":{"name":"Havana"},"id":319,"geometry":{"type":"Point","coordinates":[-82.3830413818359,23.133020401001]}},{"properties":{"name":"United Arab Emirates"},"geometry":{"coordinates":[54.5,23.75],"type":"Point"},"id":320,"scale":"0.03","color":"blue"},{"scale":"0.03","color":"blue","properties":{"name":"Olds"},"geometry":{"type":"Point","coordinates":[-114.101989746094,51.7834091186523]},"id":321},{"properties":{"name":"Makin Island"},"geometry":{"coordinates":[173.000152587891,3.38850998878479],"type":"Point"},"id":322,"scale":"0.03","color":"blue"},{"scale":"0.03","color":"blue","properties":{"name":"Plenty"},"geometry":{"type":"Point","coordinates":[146.955444335938,-42.7419090270996]},"id":323},{"properties":{"name":"Alaska"},"geometry":{"coordinates":[-150.000274658203,64.0002822875977],"type":"Point"},"id":324,"scale":"0.03","color":"blue"},{"color":"blue","scale":"0.03","id":325,"geometry":{"coordinates":[-71.0597686767578,42.3584289550781],"type":"Point"},"properties":{"name":"Boston"}},{"scale":"0.03","color":"blue","properties":{"name":"Maam Cross"},"id":326,"geometry":{"coordinates":[-9.54067993164062,53.4559898376465],"type":"Point"}},{"scale":"0.03","color":"blue","properties":{"name":"University of Southern California"},"id":327,"geometry":{"coordinates":[-118.286636352539,34.021800994873],"type":"Point"}},{"properties":{"name":"Louisiana Purchase Gardens"},"geometry":{"type":"Point","coordinates":[-92.0934677124023,32.4695892333984]},"id":328,"scale":"0.03","color":"blue"},{"scale":"0.03","color":"blue","properties":{"name":"Town of How"},"id":329,"geometry":{"coordinates":[-88.4275894165039,44.9852905273438],"type":"Point"}},{"properties":{"name":"Barry County"},"geometry":{"type":"Point","coordinates":[-85.308967590332,42.5950317382812]},"id":330,"scale":"0.03","color":"blue"},{"geometry":{"coordinates":[6.05971002578735,49.034969329834],"type":"Point"},"id":331,"properties":{"name":"Corny-sur-Moselle"},"color":"blue","scale":"0.03"},{"scale":"0.03","color":"blue","properties":{"name":"Kent County"},"geometry":{"type":"Point","coordinates":[-75.5046081542969,39.0959510803223]},"id":332},{"properties":{"name":"Burrell Boom"},"id":333,"geometry":{"coordinates":[-88.4052734375,17.5693302154541],"type":"Point"},"scale":"0.03","color":"blue"},{"geometry":{"type":"Point","coordinates":[38,1]},"id":335,"properties":{"name":"Kenya"},"color":"blue","scale":"0.03"},{"properties":{"name":"River Suck"},"geometry":{"type":"Point","coordinates":[-8.05305957794189,53.2722206115723]},"id":336,"scale":"0.03","color":"blue"},{"properties":{"name":"El Astillero"},"id":337,"geometry":{"type":"Point","coordinates":[-3.8205099105835,43.4009399414062]},"scale":"0.03","color":"blue"},{"color":"blue","scale":"0.03","id":338,"geometry":{"coordinates":[-80.4558868408203,26.1518592834473],"type":"Point"},"properties":{"name":"Broward County"}},{"color":"blue","scale":"0.03","geometry":{"coordinates":[15,46.0833282470703],"type":"Point"},"id":339,"properties":{"name":"Slovenia"}},{"color":"blue","scale":"0.02","geometry":{"coordinates":[-1.03332996368408,51.2666702270508],"type":"Point"},"id":340,"properties":{"name":"Old Basing"}},{"properties":{"name":"Ill"},"geometry":{"type":"Point","coordinates":[7.88967990875244,48.6663589477539]},"id":341,"scale":"0.02","color":"blue"},{"color":"blue","scale":"0.02","geometry":{"coordinates":[23.5,-2.5],"type":"Point"},"id":342,"properties":{"name":"Democratic Republic of the Congo"}},{"scale":"0.02","color":"blue","properties":{"name":"Damascus"},"geometry":{"type":"Point","coordinates":[36.2912788391113,33.5102005004883]},"id":343},{"properties":{"name":"Pains Island"},"id":344,"geometry":{"type":"Point","coordinates":[139.059997558594,-16.8727798461914]},"scale":"0.02","color":"blue"},{"color":"blue","scale":"0.02","geometry":{"coordinates":[-82.6212387084961,36.9752197265625],"type":"Point"},"id":345,"properties":{"name":"Wise County"}},{"color":"blue","scale":"0.02","id":346,"geometry":{"type":"Point","coordinates":[43.4999008178711,41.9999809265137]},"properties":{"name":"Georgia"}},{"color":"blue","scale":"0.02","geometry":{"type":"Point","coordinates":[-84.3518371582031,33.9308891296387]},"id":347,"properties":{"name":"Troy University Atlanta Georgia Site"}},{"geometry":{"type":"Point","coordinates":[11.7451696395874,8.88339042663574]},"id":348,"properties":{"name":"Zing"},"color":"blue","scale":"0.02"},{"color":"blue","scale":"0.02","geometry":{"type":"Point","coordinates":[-76.5224990844727,3.43722009658813]},"id":349,"properties":{"name":"Cali"}},{"id":350,"geometry":{"type":"Point","coordinates":[16.4391498565674,43.5089111328125]},"properties":{"name":"Split"},"color":"blue","scale":"0.02"},{"id":351,"geometry":{"coordinates":[-122.318901062012,40.7623710632324],"type":"Point"},"properties":{"name":"Pit River Bridge"},"color":"blue","scale":"0.02"},{"id":352,"geometry":{"type":"Point","coordinates":[-97.5164337158203,35.4675598144531]},"properties":{"name":"Oklahoma City"},"color":"blue","scale":"0.02"},{"id":353,"geometry":{"coordinates":[-6.01667022705078,57.3166694641113],"type":"Point"},"properties":{"name":"Caol Mòr"},"color":"blue","scale":"0.02"},{"properties":{"name":"Manhattan Bridge"},"geometry":{"type":"Point","coordinates":[-73.990966796875,40.707878112793]},"id":354,"scale":"0.02","color":"blue"},{"id":355,"geometry":{"type":"Point","coordinates":[41.7884407043457,36.9374694824219]},"properties":{"name":"Tall ‘Ulw"},"color":"blue","scale":"0.02"},{"properties":{"name":"Dayton"},"id":356,"geometry":{"coordinates":[-84.1916122436523,39.7589492797852],"type":"Point"},"scale":"0.02","color":"blue"},{"scale":"0.02","color":"blue","properties":{"name":"Kozan"},"geometry":{"type":"Point","coordinates":[35.815731048584,37.4551696777344]},"id":357},{"properties":{"name":"North Dakota"},"id":358,"geometry":{"coordinates":[-100.000679016113,47.5002708435059],"type":"Point"},"scale":"0.02","color":"blue"},{"id":359,"geometry":{"type":"Point","coordinates":[138.488159179688,9.53032970428467]},"properties":{"name":"Yap Trench - Yap Islands"},"color":"blue","scale":"0.02"},{"id":360,"geometry":{"coordinates":[10.5,51.5],"type":"Point"},"properties":{"name":"Germany"},"color":"blue","scale":"0.02"},{"properties":{"name":"Mount Bold Reservoir"},"geometry":{"type":"Point","coordinates":[138.701263427734,-35.1195793151855]},"id":361,"scale":"0.02","color":"blue"},{"properties":{"name":"Kāz̧im al ‘Alwāy"},"geometry":{"type":"Point","coordinates":[44.9299087524414,32.3952407836914]},"id":362,"scale":"0.02","color":"blue"},{"color":"blue","scale":"0.02","geometry":{"coordinates":[-87.6264038085938,41.8889007568359],"type":"Point"},"id":363,"properties":{"name":"Trump International Hotel and Tower"}},{"properties":{"name":"Calgary"},"id":364,"geometry":{"type":"Point","coordinates":[-114.085289001465,51.0501098632812]},"scale":"0.02","color":"blue"},{"color":"blue","scale":"0.02","id":365,"geometry":{"coordinates":[-98.6877670288086,33.176700592041],"type":"Point"},"properties":{"name":"Young County"}},{"color":"blue","scale":"0.02","id":366,"geometry":{"type":"Point","coordinates":[174,-42]},"properties":{"name":"New Zealand"}},{"scale":"0.02","color":"blue","properties":{"name":"Finland"},"id":367,"geometry":{"type":"Point","coordinates":[26,64]}},{"color":"blue","scale":"0.02","id":368,"geometry":{"coordinates":[-105.269020080566,40.0091514587402],"type":"Point"},"properties":{"name":"University of Colorado at Boulder"}},{"properties":{"name":"Georgia"},"geometry":{"coordinates":[43.4999008178711,41.9999809265137],"type":"Point"},"id":369,"scale":"0.02","color":"blue"},{"scale":"0.02","color":"blue","properties":{"name":"Sava"},"geometry":{"type":"Point","coordinates":[20.4446792602539,44.822078704834]},"id":370},{"properties":{"name":"Rowan County"},"geometry":{"coordinates":[-80.5246429443359,35.6395416259766],"type":"Point"},"id":371,"scale":"0.02","color":"blue"},{"id":372,"geometry":{"coordinates":[-85.5003280639648,44.2502899169922],"type":"Point"},"properties":{"name":"Michigan"},"color":"blue","scale":"0.02"},{"properties":{"name":"Uphill"},"geometry":{"coordinates":[-2.98070001602173,51.3236503601074],"type":"Point"},"id":373,"scale":"0.02","color":"blue"},{"properties":{"name":"Wil"},"geometry":{"type":"Point","coordinates":[9.04551982879639,47.4615211486816]},"id":374,"scale":"0.02","color":"blue"},{"id":375,"geometry":{"type":"Point","coordinates":[-83.7408828735352,42.2775611877441]},"properties":{"name":"Ann Arbor"},"color":"blue","scale":"0.02"},{"properties":{"name":"Pentagon"},"geometry":{"type":"Point","coordinates":[-77.0552597045898,38.8709487915039]},"id":376,"scale":"0.02","color":"blue"},{"color":"blue","scale":"0.02","id":377,"geometry":{"coordinates":[17.8333301544189,44.25],"type":"Point"},"properties":{"name":"Bosnia and Herzegovina"}},{"properties":{"name":"Tampa"},"geometry":{"type":"Point","coordinates":[-82.4584274291992,27.9475193023682]},"id":378,"scale":"0.02","color":"blue"},{"properties":{"name":"Queens Ventilating Building Queens Midtown Tunnel"},"geometry":{"type":"Point","coordinates":[-73.9577789306641,40.7419395446777]},"id":379,"scale":"0.02","color":"blue"},{"scale":"0.02","color":"blue","properties":{"name":"Kemaliye"},"geometry":{"coordinates":[38.4967384338379,39.2628784179688],"type":"Point"},"id":380},{"color":"blue","scale":"0.02","geometry":{"type":"Point","coordinates":[19.6265506744385,52.4539413452148]},"id":381,"properties":{"name":"Łąck"}},{"scale":"0.02","color":"blue","properties":{"name":"Maryland"},"id":382,"geometry":{"type":"Point","coordinates":[-76.7499694824219,39.0003890991211]}},{"color":"blue","scale":"0.02","geometry":{"type":"Point","coordinates":[-73.985969543457,40.7487106323242]},"id":383,"properties":{"name":"Empire State Building"}},{"id":384,"geometry":{"coordinates":[-48.8499984741211,-26.3500003814697],"type":"Point"},"properties":{"name":"Cares"},"color":"blue","scale":"0.02"},{"scale":"0.02","color":"blue","properties":{"name":"Warrensville"},"geometry":{"coordinates":[-81.5170669555664,41.4425506591797],"type":"Point"},"id":385},{"scale":"0.02","color":"blue","properties":{"name":"South America Glacier"},"geometry":{"coordinates":[161.783325195312,-77.8166732788086],"type":"Point"},"id":386},{"properties":{"name":"Empire State Building"},"geometry":{"type":"Point","coordinates":[-73.985969543457,40.7487106323242]},"id":387,"scale":"0.02","color":"blue"},{"geometry":{"type":"Point","coordinates":[3.77975988388062,46.5380897521973]},"id":388,"properties":{"name":"Gilly-sur-Loire"},"color":"blue","scale":"0.02"},{"properties":{"name":"Marco Island Florida Resort & Spa"},"geometry":{"coordinates":[-81.7292327880859,25.9286308288574],"type":"Point"},"id":389,"scale":"0.02","color":"blue"},{"id":390,"geometry":{"coordinates":[35.4944190979004,33.8889389038086],"type":"Point"},"properties":{"name":"Beirut"},"color":"blue","scale":"0.02"},{"scale":"0.02","color":"blue","properties":{"name":"Seattle"},"id":391,"geometry":{"type":"Point","coordinates":[-122.332069396973,47.6062088012695]}},{"color":"blue","scale":"0.02","id":392,"geometry":{"type":"Point","coordinates":[15,62]},"properties":{"name":"Sweden"}},{"color":"blue","scale":"0.02","geometry":{"type":"Point","coordinates":[-100.250686645508,44.5002593994141]},"id":393,"properties":{"name":"South Dakota"}},{"scale":"0.02","color":"blue","properties":{"name":"Northern Ireland"},"id":394,"geometry":{"type":"Point","coordinates":[-6.5,54.5]}},{"color":"blue","scale":"0.02","geometry":{"coordinates":[103.78971862793,1.2958300113678],"type":"Point"},"id":395,"properties":{"name":"Ayer Raja Industrial Estate"}},{"scale":"0.02","color":"blue","properties":{"name":"Richmond Oval"},"geometry":{"type":"Point","coordinates":[138.568267822266,-34.9371109008789]},"id":396},{"color":"blue","scale":"0.02","geometry":{"type":"Point","coordinates":[48.5224990844727,36.0518989562988]},"id":397,"properties":{"name":"Kūh-e Gah Gah Darband"}},{"scale":"0.02","color":"blue","properties":{"name":"Nebraska"},"id":398,"geometry":{"type":"Point","coordinates":[-99.7506713867188,41.5002784729004]}},{"properties":{"name":"Ethiopian Evangelical Church of Austin Texas"},"geometry":{"type":"Point","coordinates":[-97.6907501220703,30.3572597503662]},"id":399,"scale":"0.02","color":"blue"},{"geometry":{"type":"Point","coordinates":[-75.7809371948242,35.7866287231445]},"id":400,"properties":{"name":"Dare County"},"color":"blue","scale":"0.02"},{"scale":"0.02","color":"blue","properties":{"name":"Vermont"},"id":401,"geometry":{"coordinates":[-72.7498321533203,44.0003395080566],"type":"Point"}},{"properties":{"name":"Bremen"},"id":402,"geometry":{"coordinates":[8.80776977539062,53.0751609802246],"type":"Point"},"scale":"0.02","color":"blue"},{"scale":"0.02","color":"blue","properties":{"name":"Talki"},"geometry":{"type":"Point","coordinates":[22.2666702270508,53.7666702270508]},"id":403},{"properties":{"name":"Mulkear River"},"geometry":{"coordinates":[-8.54388999938965,52.6783294677734],"type":"Point"},"id":404,"scale":"0.02","color":"blue"},{"geometry":{"type":"Point","coordinates":[-75.6564102172852,36.0125007629395]},"id":405,"properties":{"name":"Shutters On The Banks"},"color":"blue","scale":"0.02"},{"geometry":{"coordinates":[-122.742218017578,45.4252815246582],"type":"Point"},"id":406,"properties":{"name":"Church of Jesus Christ of Latter-Day Saints the Portland Oregon Temple"},"color":"blue","scale":"0.02"},{"geometry":{"coordinates":[-73.985969543457,40.7487106323242],"type":"Point"},"id":407,"properties":{"name":"Empire State Building"},"color":"blue","scale":"0.02"},{"id":408,"geometry":{"type":"Point","coordinates":[-78.6502227783203,35.7901191711426]},"properties":{"name":"Wake County"},"color":"blue","scale":"0.02"},{"color":"blue","scale":"0.02","geometry":{"coordinates":[-92.5971069335938,36.2789611816406],"type":"Point"},"id":409,"properties":{"name":"Flippin"}},{"properties":{"name":"Wrocław"},"id":410,"geometry":{"type":"Point","coordinates":[17.0333309173584,51.0999984741211]},"scale":"0.02","color":"blue"},{"properties":{"name":"Embassy of the Netherlands"},"geometry":{"coordinates":[-77.0560913085938,38.9445610046387],"type":"Point"},"id":411,"scale":"0.02","color":"blue"},{"properties":{"name":"Yuma County"},"geometry":{"coordinates":[-113.905563354492,32.769401550293],"type":"Point"},"id":412,"scale":"0.01","color":"blue"},{"color":"blue","scale":"0.01","geometry":{"type":"Point","coordinates":[-118.754402160645,39.4975090026855]},"id":413,"properties":{"name":"Fallon Municipal Airport"}},{"color":"blue","scale":"0.01","id":414,"geometry":{"type":"Point","coordinates":[123.150001525879,44.8135108947754]},"properties":{"name":"Kaitong"}},{"properties":{"name":"Singapore Railway Station"},"id":415,"geometry":{"type":"Point","coordinates":[103.836387634277,1.27305996417999]},"scale":"0.01","color":"blue"},{"scale":"0.01","color":"blue","properties":{"name":"Massachusetts Institute of Technology"},"id":416,"geometry":{"type":"Point","coordinates":[-71.0917205810547,42.3595390319824]}},{"color":"blue","scale":"0.01","id":417,"geometry":{"coordinates":[-67,-54.5],"type":"Point"},"properties":{"name":"Provincia de Tierra del Fuego, Antártida e Islas del Atlántico Sur"}},{"color":"blue","scale":"0.01","geometry":{"coordinates":[-118.359252929688,34.2005615234375],"type":"Point"},"id":418,"properties":{"name":"Bob Hope Airport"}},{"id":419,"geometry":{"coordinates":[-113.905563354492,32.769401550293],"type":"Point"},"properties":{"name":"Yuma County"},"color":"blue","scale":"0.01"},{"properties":{"name":"Cologne"},"id":420,"geometry":{"coordinates":[9.94180011749268,45.5786209106445],"type":"Point"},"scale":"0.01","color":"blue"},{"scale":"0.01","color":"blue","properties":{"name":"Connecticut"},"geometry":{"type":"Point","coordinates":[-72.6664810180664,41.6670417785645]},"id":421},{"properties":{"name":"Ecuador"},"id":422,"geometry":{"type":"Point","coordinates":[-78.25,-1.25]},"scale":"0.01","color":"blue"},{"properties":{"name":"Denver"},"id":423,"geometry":{"type":"Point","coordinates":[-104.984703063965,39.7391510009766]},"scale":"0.01","color":"blue"},{"color":"blue","scale":"0.01","id":424,"geometry":{"type":"Point","coordinates":[12.5113296508789,41.8919296264648]},"properties":{"name":"Rome"}},{"geometry":{"coordinates":[10.5,51.5],"type":"Point"},"id":425,"properties":{"name":"Germany"},"color":"blue","scale":"0.01"},{"scale":"0.01","color":"blue","properties":{"name":"Lac de Fully"},"geometry":{"coordinates":[7.09364986419678,46.1789398193359],"type":"Point"},"id":426},{"color":"blue","scale":"0.01","geometry":{"coordinates":[13.410530090332,52.5243682861328],"type":"Point"},"id":427,"properties":{"name":"Berlin"}},{"properties":{"name":"Charleston"},"id":428,"geometry":{"type":"Point","coordinates":[-79.9309234619141,32.7765693664551]},"scale":"0.01","color":"blue"},{"scale":"0.01","color":"blue","properties":{"name":"Columbus"},"id":429,"geometry":{"coordinates":[-82.9987869262695,39.961181640625],"type":"Point"}},{"color":"blue","scale":"0.01","id":430,"geometry":{"type":"Point","coordinates":[32.0077896118164,46.9056701660156]},"properties":{"name":"Pivdennyy Buh"}},{"color":"blue","scale":"0.01","id":431,"geometry":{"type":"Point","coordinates":[-87.156120300293,36.3320007324219]},"properties":{"name":"Cheap Hill Church of Christ"}},{"id":433,"geometry":{"coordinates":[-2.23743009567261,53.4809494018555],"type":"Point"},"properties":{"name":"Manchester"},"color":"blue","scale":"0.01"},{"properties":{"name":"Hampton Inn & Suites Jacksonville Florida"},"geometry":{"type":"Point","coordinates":[-81.5589599609375,30.2695808410645]},"id":435,"scale":"0.01","color":"blue"},{"scale":"0.01","color":"blue","properties":{"name":"Jordan"},"geometry":{"type":"Point","coordinates":[36,31]},"id":436},{"geometry":{"type":"Point","coordinates":[126.053062438965,9.75944042205811]},"id":437,"properties":{"name":"Dapa"},"color":"blue","scale":"0.01"},{"color":"blue","scale":"0.01","id":438,"geometry":{"type":"Point","coordinates":[101,15.5]},"properties":{"name":"Thailand"}},{"color":"blue","scale":"0.01","geometry":{"coordinates":[10.5,51.5],"type":"Point"},"id":439,"properties":{"name":"Germany"}},{"color":"blue","scale":"0.01","geometry":{"coordinates":[-117.157257080078,32.7153282165527],"type":"Point"},"id":440,"properties":{"name":"San Diego"}},{"properties":{"name":"Sooke"},"id":441,"geometry":{"type":"Point","coordinates":[-123.72762298584,48.3746299743652]},"scale":"0.01","color":"blue"},{"scale":"0.01","color":"blue","properties":{"name":"Loans"},"geometry":{"coordinates":[-4.62410020828247,55.5503997802734],"type":"Point"},"id":442},{"id":443,"geometry":{"coordinates":[51.4215087890625,35.6943893432617],"type":"Point"},"properties":{"name":"Tehrān"},"color":"blue","scale":"0.01"},{"geometry":{"coordinates":[8.01426982879639,47.0001602172852],"type":"Point"},"id":444,"properties":{"name":"Switzerland"},"color":"blue","scale":"0.01"},{"scale":"0.01","color":"blue","properties":{"name":"Le Bec-Hellouin"},"geometry":{"coordinates":[0.721319973468781,49.2312507629395],"type":"Point"},"id":445},{"geometry":{"type":"Point","coordinates":[5.46838998794556,60.1872291564941]},"id":446,"properties":{"name":"Os kyrkje"},"color":"blue","scale":"0.01"},{"geometry":{"type":"Point","coordinates":[9.75,45.2666702270508]},"id":447,"properties":{"name":"Fiume Serio"},"color":"blue","scale":"0.01"},{"properties":{"name":"Vietnam"},"id":448,"geometry":{"type":"Point","coordinates":[107.83332824707,16.1666698455811]},"scale":"0.01","color":"blue"},{"color":"blue","scale":"0.01","geometry":{"type":"Point","coordinates":[-77.0088729858398,38.8898315429688]},"id":450,"properties":{"name":"United States Capitol"}},{"id":451,"geometry":{"coordinates":[-80.843132019043,35.2270889282227],"type":"Point"},"properties":{"name":"Charlotte"},"color":"blue","scale":"0.01"},{"geometry":{"type":"Point","coordinates":[-73.9523620605469,40.851490020752]},"id":452,"properties":{"name":"George Washington Bridge"},"color":"blue","scale":"0.01"},{"color":"blue","scale":"0.01","geometry":{"coordinates":[-66,8],"type":"Point"},"id":453,"properties":{"name":"Venezuela"}},{"properties":{"name":"Salem"},"geometry":{"type":"Point","coordinates":[-70.8967208862305,42.5195388793945]},"id":454,"scale":"0.01","color":"blue"},{"scale":"0.01","color":"blue","properties":{"name":"Villeneuve-sur-Lot"},"geometry":{"type":"Point","coordinates":[0.704150021076202,44.4085388183594]},"id":455},{"properties":{"name":"Manning River"},"geometry":{"coordinates":[152.633331298828,-31.8666706085205],"type":"Point"},"id":456,"scale":"0.01","color":"blue"},{"properties":{"name":"Denmark"},"id":457,"geometry":{"coordinates":[10,56],"type":"Point"},"scale":"0.01","color":"blue"},{"properties":{"name":"Sydney"},"id":458,"geometry":{"coordinates":[151.207321166992,-33.8678512573242],"type":"Point"},"scale":"0.01","color":"blue"},{"properties":{"name":"London Bridge Underground Station"},"id":459,"geometry":{"type":"Point","coordinates":[-0.086839996278286,51.5053787231445]},"scale":"0.01","color":"blue"},{"scale":"0.01","color":"blue","properties":{"name":"Esquimalt"},"geometry":{"type":"Point","coordinates":[-123.411743164062,48.4356918334961]},"id":460},{"properties":{"name":"Inner Mongolia Autonomous Region"},"id":461,"geometry":{"coordinates":[114.75,43.5],"type":"Point"},"scale":"0.01","color":"blue"},{"scale":"0.01","color":"blue","properties":{"name":"You Bet"},"geometry":{"coordinates":[-120.899940490723,39.2090606689453],"type":"Point"},"id":462},{"color":"blue","scale":"0.01","geometry":{"coordinates":[137.552276611328,-32.3606910705566],"type":"Point"},"id":463,"properties":{"name":"Marquee Dam"}},{"geometry":{"type":"Point","coordinates":[-90.3776168823242,38.4328308105469]},"id":464,"properties":{"name":"Arnold"},"color":"blue","scale":"0.01"},{"color":"blue","scale":"0.01","id":465,"geometry":{"type":"Point","coordinates":[-0.119929999113083,51.5222091674805]},"properties":{"name":"Great Ormond Street Hospital The"}},{"properties":{"name":"Brazil"},"geometry":{"type":"Point","coordinates":[-55,-10]},"id":466,"scale":"0.01","color":"blue"},{"geometry":{"coordinates":[-43.2300300598145,-22.9816608428955],"type":"Point"},"id":468,"properties":{"name":"Jardim Pernambuco"},"color":"blue","scale":"0.01"},{"color":"blue","scale":"0.01","id":469,"geometry":{"coordinates":[-71.3128280639648,41.4901008605957],"type":"Point"},"properties":{"name":"Newport"}},{"properties":{"name":"Province House National Historic Site of Canada"},"id":470,"geometry":{"type":"Point","coordinates":[-63.1264915466309,46.2357215881348]},"scale":"0.01","color":"blue"},{"geometry":{"coordinates":[-83.2611312866211,42.2847785949707],"type":"Point"},"id":471,"properties":{"name":"Wayne County"},"color":"blue","scale":"0.01"},{"color":"blue","scale":"0.01","geometry":{"type":"Point","coordinates":[16.1516704559326,43.0449981689453]},"id":472,"properties":{"name":"Otok Vis"}},{"color":"blue","scale":"0.01","geometry":{"type":"Point","coordinates":[-81.6480102539062,30.3354396820068]},"id":473,"properties":{"name":"Duval County"}},{"scale":"0.01","color":"blue","properties":{"name":"Paris"},"geometry":{"coordinates":[2.34879994392395,48.8534088134766],"type":"Point"},"id":474},{"geometry":{"type":"Point","coordinates":[-1.55335998535156,47.2172508239746]},"id":475,"properties":{"name":"Nantes"},"color":"blue","scale":"0.01"},{"scale":"0.01","color":"blue","properties":{"name":"Williamson County"},"id":476,"geometry":{"type":"Point","coordinates":[-86.8985977172852,35.8937797546387]}},{"properties":{"name":"Mount Manning"},"geometry":{"coordinates":[151.101196289062,-33.1318016052246],"type":"Point"},"id":477,"scale":"0.01","color":"blue"},{"properties":{"name":"Ill"},"id":478,"geometry":{"type":"Point","coordinates":[7.88967990875244,48.6663589477539]},"scale":"0.01","color":"blue"},{"scale":"0.01","color":"blue","properties":{"name":"Philippines"},"geometry":{"coordinates":[122,13],"type":"Point"},"id":479},{"color":"blue","scale":"0.01","geometry":{"type":"Point","coordinates":[0.0755700021982193,43.2409896850586]},"id":481,"properties":{"name":"Nex Hotel"}},{"properties":{"name":"Beverly Hills"},"geometry":{"coordinates":[-118.400360107422,34.0736198425293],"type":"Point"},"id":482,"scale":"0.01","color":"blue"},{"scale":"0.01","color":"blue","properties":{"name":"Monaco"},"id":483,"geometry":{"coordinates":[7.41903018951416,43.7314109802246],"type":"Point"}},{"id":484,"geometry":{"type":"Point","coordinates":[15.6773195266724,60.5388793945312]},"properties":{"name":"Runn"},"color":"blue","scale":"0.01"},{"properties":{"name":"Proven"},"id":485,"geometry":{"type":"Point","coordinates":[2.65721011161804,50.8897590637207]},"scale":"0.01","color":"blue"},{"id":486,"geometry":{"type":"Point","coordinates":[-97.287239074707,33.1828994750977]},"properties":{"name":"Ponder"},"color":"blue","scale":"0.01"},{"scale":"0.01","color":"blue","properties":{"name":"Peru"},"geometry":{"type":"Point","coordinates":[-75.25,-10]},"id":487},{"id":488,"geometry":{"type":"Point","coordinates":[-5.45403003692627,37.1208381652832]},"properties":{"name":"Morón de la Frontera"},"color":"blue","scale":"0.01"},{"color":"blue","scale":"0.01","id":489,"geometry":{"coordinates":[-70,-9],"type":"Point"},"properties":{"name":"Acre"}},{"scale":"0.01","color":"blue","properties":{"name":"Lagarde-d’Apt"},"geometry":{"type":"Point","coordinates":[5.4733099937439,43.9835815429688]},"id":490},{"id":491,"geometry":{"type":"Point","coordinates":[116.397232055664,39.9075012207031]},"properties":{"name":"Beijing"},"color":"blue","scale":"0.01"},{"color":"blue","scale":"0.01","id":492,"geometry":{"type":"Point","coordinates":[16.8013095855713,62.7004814147949]},"properties":{"name":"Liden"}},{"color":"blue","scale":"0.01","id":493,"geometry":{"type":"Point","coordinates":[-90.0489807128906,35.149528503418]},"properties":{"name":"Memphis"}},{"scale":"0.01","color":"blue","properties":{"name":"Bah-Bah"},"geometry":{"coordinates":[125.914436340332,8.60721969604492],"type":"Point"},"id":494},{"color":"blue","scale":"0.01","geometry":{"coordinates":[-61.0733413696289,14.6089200973511],"type":"Point"},"id":495,"properties":{"name":"Fort-de-France"}},{"geometry":{"coordinates":[11.3387498855591,44.4938087463379],"type":"Point"},"id":496,"properties":{"name":"Bologna"},"color":"blue","scale":"0.01"},{"id":497,"geometry":{"type":"Point","coordinates":[34.3333282470703,31.4166698455811]},"properties":{"name":"Gaza Strip"},"color":"blue","scale":"0.01"},{"scale":"0.01","color":"blue","properties":{"name":"Chesterfield"},"id":498,"geometry":{"coordinates":[-1.41666996479034,53.25],"type":"Point"}},{"properties":{"name":"Waldo County"},"id":499,"geometry":{"coordinates":[-69.1218795776367,44.4852485656738],"type":"Point"},"scale":"0.01","color":"blue"},{"scale":"0.01","color":"blue","properties":{"name":"Pittsburgh"},"id":500,"geometry":{"type":"Point","coordinates":[-79.9958877563477,40.4406204223633]}},{"scale":"0.01","color":"blue","properties":{"name":"Recreation Ground"},"id":501,"geometry":{"type":"Point","coordinates":[-0.754779994487762,51.2484016418457]}},{"geometry":{"coordinates":[4.47916984558105,51.9225006103516],"type":"Point"},"id":502,"properties":{"name":"Rotterdam"},"color":"blue","scale":"0.01"},{"scale":"0.01","color":"blue","properties":{"name":"Las Vegas"},"geometry":{"coordinates":[-115.137222290039,36.1749687194824],"type":"Point"},"id":503},{"scale":"0.01","color":"blue","properties":{"name":"Hampton Inn Orlando-Florida Ma"},"geometry":{"coordinates":[-81.4026870727539,28.4400691986084],"type":"Point"},"id":504},{"properties":{"name":"Cincinnati"},"id":505,"geometry":{"type":"Point","coordinates":[-84.4568862915039,39.1619987487793]},"scale":"0.01","color":"blue"},{"properties":{"name":"United States"},"geometry":{"coordinates":[-98.5,39.7599983215332],"type":"Point"},"id":507,"scale":"0.01","color":"blue"},{"properties":{"name":"Springfield"},"geometry":{"coordinates":[-89.6437072753906,39.8017196655273],"type":"Point"},"id":508,"scale":"0.01","color":"blue"},{"properties":{"name":"New York City"},"id":509,"geometry":{"coordinates":[-74.0059661865234,40.7142715454102],"type":"Point"},"scale":"0.01","color":"blue"},{"scale":"0.01","color":"blue","properties":{"name":"Niederösterreich"},"geometry":{"type":"Point","coordinates":[15.75,48.3333282470703]},"id":510},{"scale":"0.01","color":"blue","properties":{"name":"Greece"},"id":511,"geometry":{"type":"Point","coordinates":[22,39]}},{"geometry":{"type":"Point","coordinates":[-94.118537902832,36.3320198059082]},"id":512,"properties":{"name":"Rogers"},"color":"blue","scale":"0.01"},{"geometry":{"coordinates":[-74.0059661865234,40.7142715454102],"type":"Point"},"id":513,"properties":{"name":"New York City"},"color":"blue","scale":"0.01"},{"geometry":{"coordinates":[-112.178413391113,33.5400085449219],"type":"Point"},"id":514,"properties":{"name":"World Mission Society Church of God (WMC) in Glendale, Phoenix, Arizona"},"color":"blue","scale":"0.01"},{"geometry":{"type":"Point","coordinates":[-98.5,39.7599983215332]},"id":515,"properties":{"name":"United States"},"color":"blue","scale":"0.01"},{"properties":{"name":"Philadelphia"},"id":516,"geometry":{"coordinates":[-89.1167297363281,32.7715187072754],"type":"Point"},"scale":"0.01","color":"blue"},{"geometry":{"type":"Point","coordinates":[-74.0059661865234,40.7142715454102]},"id":517,"properties":{"name":"New York City"},"color":"blue","scale":"0.01"},{"scale":"0.01","color":"blue","properties":{"name":"South Korea"},"id":518,"geometry":{"coordinates":[127.75,36.5],"type":"Point"}},{"color":"blue","scale":"0.01","geometry":{"type":"Point","coordinates":[-105.961128234863,36.2061309814453]},"id":519,"properties":{"name":"Health Centers of New Mexico Northern New Mexico Embudo Clinic"}},{"properties":{"name":"South Carolina"},"geometry":{"type":"Point","coordinates":[-81.0000915527344,34.000431060791]},"id":520,"scale":"0.01","color":"blue"},{"scale":"0.01","color":"blue","properties":{"name":"Algeria"},"geometry":{"type":"Point","coordinates":[3,28]},"id":521},{"geometry":{"coordinates":[1.41790997982025,52.5278511047363],"type":"Point"},"id":522,"properties":{"name":"Seething"},"color":"blue","scale":"0.01"},{"geometry":{"coordinates":[72.0469207763672,35.3087882995605],"type":"Point"},"id":523,"properties":{"name":"Upper Dīr District"},"color":"blue","scale":"0.01"},{"scale":"0.01","color":"blue","properties":{"name":"Loveland Ski Area"},"id":524,"geometry":{"type":"Point","coordinates":[-105.901123046875,39.6780395507812]}},{"properties":{"name":"McKinnon Glacier"},"id":525,"geometry":{"coordinates":[67.75,-70.6333312988281],"type":"Point"},"scale":"0.01","color":"blue"},{"id":526,"geometry":{"type":"Point","coordinates":[29.0125007629395,52.5601005554199]},"properties":{"name":"Grab’yë"},"color":"blue","scale":"0.01"},{"color":"blue","scale":"0.01","geometry":{"type":"Point","coordinates":[-2.43333005905151,53.5833282470703]},"id":527,"properties":{"name":"Bolton"}},{"scale":"0.01","color":"blue","properties":{"name":"The Varsity Hotel & Spa"},"id":528,"geometry":{"type":"Point","coordinates":[0.118069998919964,52.2103309631348]}},{"color":"blue","scale":"0.01","geometry":{"type":"Point","coordinates":[148.909866333008,-34.8403587341309]},"id":529,"properties":{"name":"Yass"}},{"properties":{"name":"Nashville"},"geometry":{"type":"Point","coordinates":[-86.7844390869141,36.1658897399902]},"id":530,"scale":"0.01","color":"blue"},{"geometry":{"type":"Point","coordinates":[146.240005493164,-41.8899993896484]},"id":531,"properties":{"name":"Walls of Jerusalem National Park"},"color":"blue","scale":"0.01"},{"scale":"0.01","color":"blue","properties":{"name":"Zimbabwe"},"id":532,"geometry":{"coordinates":[29.75,-19],"type":"Point"}},{"properties":{"name":"City of Gary"},"geometry":{"type":"Point","coordinates":[-87.3452072143555,41.5956001281738]},"id":533,"scale":"0.01","color":"blue"},{"geometry":{"coordinates":[47.5,15.5],"type":"Point"},"id":534,"properties":{"name":"Yemen"},"color":"blue","scale":"0.01"},{"color":"blue","scale":"0.01","id":535,"geometry":{"type":"Point","coordinates":[-2.59664988517761,51.4552307128906]},"properties":{"name":"Bristol"}},{"color":"blue","scale":"0.01","id":536,"geometry":{"coordinates":[-2.83561992645264,52.4430809020996],"type":"Point"},"properties":{"name":"Craven Arms"}},{"scale":"0.01","color":"blue","properties":{"name":"Min'hat Hashnayim Airfield"},"geometry":{"coordinates":[35.3810386657715,31.150899887085],"type":"Point"},"id":537},{"color":"blue","scale":"0.01","geometry":{"coordinates":[78.0166702270508,27.1833305358887],"type":"Point"},"id":538,"properties":{"name":"Āgra"}},{"geometry":{"coordinates":[-86.7502593994141,32.7504081726074],"type":"Point"},"id":539,"properties":{"name":"Alabama"},"color":"blue","scale":"0.01"},{"color":"blue","scale":"0.01","geometry":{"type":"Point","coordinates":[-3.29999995231628,52.5166702270508]},"id":540,"properties":{"name":"Newtown"}},{"color":"blue","scale":"0.01","geometry":{"type":"Point","coordinates":[-82.6526031494141,27.7678108215332]},"id":541,"properties":{"name":"Tropicana Field"}},{"scale":"0.01","color":"blue","properties":{"name":"Mumbai"},"id":542,"geometry":{"coordinates":[72.8826065063477,19.0728302001953],"type":"Point"}},{"geometry":{"coordinates":[-111.5009765625,34.500301361084],"type":"Point"},"id":543,"properties":{"name":"Arizona"},"color":"blue","scale":"0.01"},{"color":"blue","scale":"0.01","id":544,"geometry":{"type":"Point","coordinates":[-15.8000001907349,13.75]},"properties":{"name":"Nioro du Rip"}},{"geometry":{"type":"Point","coordinates":[-8.6114376,52.362055]},"id":545,"properties":{"name":"Effin"},"color":"blue","scale":"0.01"},{"color":"blue","scale":"0.01","geometry":{"coordinates":[-97.5164337158203,35.4675598144531],"type":"Point"},"id":546,"properties":{"name":"Oklahoma City"}},{"scale":"0.01","color":"blue","properties":{"name":"Stump Lake"},"geometry":{"coordinates":[-120.33332824707,50.3833312988281],"type":"Point"},"id":547},{"properties":{"name":"Idaho"},"id":548,"geometry":{"type":"Point","coordinates":[-114.251182556152,44.5001983642578]},"scale":"0.01","color":"blue"},{"properties":{"name":"Big Slide Mountain"},"id":549,"geometry":{"type":"Point","coordinates":[-73.8704223632812,44.1822700500488]},"scale":"0.01","color":"blue"},{"scale":"0.01","color":"blue","properties":{"name":"Red Fort"},"id":550,"geometry":{"type":"Point","coordinates":[77.2404098510742,28.6551895141602]}},{"properties":{"name":"Sudan"},"id":551,"geometry":{"coordinates":[30,16],"type":"Point"},"scale":"0.01","color":"blue"},{"properties":{"name":"New York"},"geometry":{"type":"Point","coordinates":[-75.4999008178711,43.0003509521484]},"id":552,"scale":"0.01","color":"blue"},{"properties":{"name":"Maury County"},"id":553,"geometry":{"type":"Point","coordinates":[-87.0770111083984,35.6169395446777]},"scale":"0.01","color":"blue"},{"id":554,"geometry":{"type":"Point","coordinates":[86.92529296875,27.9879093170166]},"properties":{"name":"Mount Everest"},"color":"blue","scale":"0.01"},{"color":"blue","scale":"0.01","geometry":{"type":"Point","coordinates":[8.34360027313232,44.1695213317871]},"id":555,"properties":{"name":"Finale Ligure"}},{"id":556,"geometry":{"coordinates":[73.8604431152344,18.5303897857666],"type":"Point"},"properties":{"name":"Mutha River"},"color":"blue","scale":"0.01"},{"color":"blue","scale":"0.01","id":557,"geometry":{"coordinates":[10.3368301391602,46.8171691894531],"type":"Point"},"properties":{"name":"Sent"}},{"color":"blue","scale":"0.01","id":558,"geometry":{"type":"Point","coordinates":[35.2690086364746,33.0207481384277]},"properties":{"name":"Ma‘alot Tarshīḥā"}},{"properties":{"name":"Omaha"},"geometry":{"type":"Point","coordinates":[-95.9377899169922,41.2586097717285]},"id":559,"scale":"0.01","color":"blue"},{"properties":{"name":"Knock"},"geometry":{"coordinates":[-6.26667022705078,58.2000007629395],"type":"Point"},"id":560,"scale":"0.01","color":"blue"},{"scale":"0.01","color":"blue","properties":{"name":"Arnhem"},"geometry":{"type":"Point","coordinates":[134.830307006836,-13.2582702636719]},"id":561},{"id":562,"geometry":{"type":"Point","coordinates":[-81.3409729003906,27.3433990478516]},"properties":{"name":"Highlands County"},"color":"blue","scale":"0.01"},{"properties":{"name":"Jīnd"},"id":563,"geometry":{"coordinates":[76.3150177001953,29.3157691955566],"type":"Point"},"scale":"0.01","color":"blue"},{"properties":{"name":"Canyonlands National Park Islands in the Park Fire District"},"id":564,"geometry":{"coordinates":[-109.824333190918,38.459358215332],"type":"Point"},"scale":"0.01","color":"blue"},{"scale":"0.01","color":"blue","properties":{"name":"Bla Bla"},"id":565,"geometry":{"coordinates":[3.21940994262695,51.2061080932617],"type":"Point"}},{"color":"blue","scale":"0.01","id":566,"geometry":{"type":"Point","coordinates":[-81.3973388671875,40.8206100463867]},"properties":{"name":"National Pro Football Hall of Fame"}},{"color":"blue","scale":"0.01","geometry":{"type":"Point","coordinates":[-4.48332977294922,54.1500015258789]},"id":567,"properties":{"name":"Douglas"}},{"geometry":{"coordinates":[-80.0131072998047,40.4467391967773],"type":"Point"},"id":568,"properties":{"name":"Three Rivers Stadium (historical)"},"color":"blue","scale":"0.01"},{"scale":"0.01","color":"blue","properties":{"name":"West Antarctica (or Lesser Antarctica)"},"geometry":{"coordinates":[-90,-80],"type":"Point"},"id":569},{"properties":{"name":"Nyah"},"id":570,"geometry":{"type":"Point","coordinates":[143.377365112305,-35.1754684448242]},"scale":"0.01","color":"blue"},{"properties":{"name":"Lawrence"},"geometry":{"type":"Point","coordinates":[-95.2352523803711,38.9716682434082]},"id":571,"scale":"0.01","color":"blue"},{"color":"blue","scale":"0.01","geometry":{"type":"Point","coordinates":[-2.51416993141174,51.0900001525879]},"id":572,"properties":{"name":"Castle Cary"}},{"id":573,"geometry":{"type":"Point","coordinates":[1.10909998416901,52.3767509460449]},"properties":{"name":"Diss"},"color":"blue","scale":"0.01"},{"color":"blue","scale":"0.01","geometry":{"type":"Point","coordinates":[-2.69531011581421,54.7584381103516]},"id":574,"properties":{"name":"United Kingdom"}},{"scale":"0.01","color":"blue","properties":{"name":"Wrangle"},"id":575,"geometry":{"coordinates":[0.129889994859695,53.0393486022949],"type":"Point"}},{"scale":"0.01","color":"blue","properties":{"name":"Concise"},"geometry":{"type":"Point","coordinates":[6.7196798324585,46.850269317627]},"id":576},{"color":"blue","scale":"0.01","geometry":{"coordinates":[-88.913948059082,40.4829902648926],"type":"Point"},"id":577,"properties":{"name":"Central Illinois Regional Airport at Bloomington-Normal"}},{"scale":"0.01","color":"blue","properties":{"name":"Rhode Island"},"geometry":{"coordinates":[-71.4997787475586,41.7503814697266],"type":"Point"},"id":578},{"scale":"0.01","color":"blue","properties":{"name":"Bay of Plenty"},"geometry":{"coordinates":[177,-37.6666717529297],"type":"Point"},"id":580},{"color":"blue","scale":"0.01","id":581,"geometry":{"coordinates":[-92.8357162475586,38.841251373291],"type":"Point"},"properties":{"name":"Township of Palestine"}},{"geometry":{"coordinates":[7.80649995803833,63.0243110656738],"type":"Point"},"id":582,"properties":{"name":"Nedre Frei"},"color":"blue","scale":"0.01"},{"properties":{"name":"Tyne and Wear"},"id":583,"geometry":{"type":"Point","coordinates":[-1.56666994094849,54.9166717529297]},"scale":"0.01","color":"blue"},{"geometry":{"type":"Point","coordinates":[-73.756233215332,42.6525802612305]},"id":584,"properties":{"name":"Albany"},"color":"blue","scale":"0.01"},{"scale":"0.01","color":"blue","properties":{"name":"Kimble County"},"geometry":{"type":"Point","coordinates":[-99.7487030029297,30.486780166626]},"id":585},{"properties":{"name":"Orgáni"},"geometry":{"coordinates":[25.6844596862793,41.2528800964355],"type":"Point"},"id":586,"scale":"0.01","color":"blue"},{"color":"blue","scale":"0.01","geometry":{"type":"Point","coordinates":[-120.959663391113,37.654369354248]},"id":587,"properties":{"name":"The Institute - the road to Excellence"}},{"properties":{"name":"The Mumbles"},"geometry":{"type":"Point","coordinates":[-4,51.5750007629395]},"id":588,"scale":"0.01","color":"blue"},{"color":"blue","scale":"0.01","id":589,"geometry":{"coordinates":[-94.5947036743164,38.9883193969727],"type":"Point"},"properties":{"name":"Kansas City Missouri Fire Department Station 37"}},{"id":590,"geometry":{"type":"Point","coordinates":[-8,53]},"properties":{"name":"Ireland"},"color":"blue","scale":"0.01"},{"color":"blue","scale":"0.01","id":591,"geometry":{"coordinates":[-85.689208984375,40.0893287658691],"type":"Point"},"properties":{"name":"City of Anderson"}},{"geometry":{"type":"Point","coordinates":[71.1994171142578,22.5742206573486]},"id":592,"properties":{"name":"Thān"},"color":"blue","scale":"0.01"},{"scale":"0.01","color":"blue","properties":{"name":"Bath"},"id":593,"geometry":{"coordinates":[-2.36172008514404,51.3750991821289],"type":"Point"}},{"scale":"0.01","color":"blue","properties":{"name":"Armenia"},"geometry":{"coordinates":[45,40.25],"type":"Point"},"id":594},{"properties":{"name":"London"},"geometry":{"coordinates":[-0.125740006566048,51.5085296630859],"type":"Point"},"id":595,"scale":"0.01","color":"blue"},{"properties":{"name":"Brittany Farms-Highlands"},"geometry":{"type":"Point","coordinates":[-75.2140121459961,40.2690086364746]},"id":596,"scale":"0.01","color":"blue"},{"color":"blue","scale":"0.01","id":597,"geometry":{"type":"Point","coordinates":[-85.7680892944336,43.0014114379883]},"properties":{"name":"Walker"}},{"scale":"0.01","color":"blue","properties":{"name":"Angers"},"geometry":{"type":"Point","coordinates":[-0.550000011920929,47.4666709899902]},"id":598},{"properties":{"name":"Pic River"},"geometry":{"type":"Point","coordinates":[-86.2969436645508,48.603328704834]},"id":599,"scale":"0.01","color":"blue"},{"properties":{"name":"Butterworth"},"id":600,"geometry":{"type":"Point","coordinates":[28.1498107910156,-32.3308296203613]},"scale":"0.01","color":"blue"},{"scale":"0.01","color":"blue","properties":{"name":"Willamette Repertory Theatre Offices"},"id":601,"geometry":{"type":"Point","coordinates":[-123.094749450684,44.0513496398926]}},{"color":"blue","scale":"0.01","geometry":{"coordinates":[-77.25,18.1666698455811],"type":"Point"},"id":602,"properties":{"name":"Jamaica"}},{"color":"blue","scale":"0.01","geometry":{"coordinates":[55.1712799072266,25.0657005310059],"type":"Point"},"id":603,"properties":{"name":"Dubai"}},{"scale":"0.01","color":"blue","properties":{"name":"Defiance County"},"geometry":{"type":"Point","coordinates":[-84.4905014038086,41.3239212036133]},"id":604},{"geometry":{"type":"Point","coordinates":[-75.4999237060547,39.0003890991211]},"id":605,"properties":{"name":"Delaware"},"color":"blue","scale":"0.01"},{"scale":"0.01","color":"blue","properties":{"name":"Windsor Castle"},"geometry":{"coordinates":[-0.605019986629486,51.4836502075195],"type":"Point"},"id":606},{"scale":"0.01","color":"blue","properties":{"name":"Haliburton County"},"id":607,"geometry":{"coordinates":[-78.4995498657227,45.166820526123],"type":"Point"}},{"color":"blue","scale":"0.01","geometry":{"coordinates":[-90.3362121582031,38.7441101074219],"type":"Point"},"id":608,"properties":{"name":"City of Berkeley"}},{"color":"blue","scale":"0.01","id":609,"geometry":{"type":"Point","coordinates":[15.9779796600342,45.8144416809082]},"properties":{"name":"Zagreb"}},{"scale":"0.01","color":"blue","properties":{"name":"Hillsdale County"},"geometry":{"coordinates":[-84.5929336547852,41.8877716064453],"type":"Point"},"id":610},{"geometry":{"type":"Point","coordinates":[-122.263023376465,37.8354797363281]},"id":611,"properties":{"name":"North Oakland Station Oakland Post Office"},"color":"blue","scale":"0.01"},{"geometry":{"type":"Point","coordinates":[5.98313999176025,43.1374092102051]},"id":612,"properties":{"name":"La Valette-du-Var"},"color":"blue","scale":"0.01"},{"id":613,"geometry":{"type":"Point","coordinates":[-123.035102844238,44.9429016113281]},"properties":{"name":"Salem"},"color":"blue","scale":"0.01"},{"properties":{"name":"Ellis Island"},"id":614,"geometry":{"coordinates":[-74.039306640625,40.6992683410645],"type":"Point"},"scale":"0.01","color":"blue"},{"id":615,"geometry":{"type":"Point","coordinates":[-74.2315292358398,39.573169708252]},"properties":{"name":"North Beach Haven"},"color":"blue","scale":"0.01"},{"color":"blue","scale":"0.01","id":616,"geometry":{"coordinates":[-94.3765869140625,30.7712306976318],"type":"Point"},"properties":{"name":"Tyler County"}},{"geometry":{"type":"Point","coordinates":[-113.905563354492,32.769401550293]},"id":617,"properties":{"name":"Yuma County"},"color":"blue","scale":"0.01"},{"scale":"0.01","color":"blue","properties":{"name":"City of Crown Point"},"id":618,"geometry":{"type":"Point","coordinates":[-87.3454818725586,41.4140205383301]}},{"color":"blue","scale":"0.01","id":619,"geometry":{"type":"Point","coordinates":[5.90199995040894,51.7477684020996]},"properties":{"name":"Gemeente Mook en Middelaar"}},{"color":"blue","scale":"0.01","geometry":{"coordinates":[-3.94523000717163,56.6188011169434],"type":"Point"},"id":620,"properties":{"name":"Dull"}},{"id":621,"geometry":{"coordinates":[23.5,-2.5],"type":"Point"},"properties":{"name":"Democratic Republic of the Congo"},"color":"blue","scale":"0.01"},{"scale":"0.01","color":"blue","properties":{"name":"Rose Bowl"},"id":622,"geometry":{"type":"Point","coordinates":[-118.168128967285,34.1613998413086]}},{"id":623,"geometry":{"coordinates":[121,24],"type":"Point"},"properties":{"name":"Taiwan"},"color":"blue","scale":"0.01"},{"scale":"0.01","color":"blue","properties":{"name":"Homs"},"geometry":{"type":"Point","coordinates":[36.723388671875,34.7268218994141]},"id":624},{"color":"blue","scale":"0.01","geometry":{"type":"Point","coordinates":[-75.8452682495117,45.3946495056152]},"id":625,"properties":{"name":"Aylmer, Gatineau"}},{"color":"blue","scale":"0.00","geometry":{"type":"Point","coordinates":[-86.390266418457,35.8456192016602]},"id":626,"properties":{"name":"Murfreesboro"}},{"color":"blue","scale":"0.00","id":627,"geometry":{"type":"Point","coordinates":[-162.024444580078,60.2188911437988]},"properties":{"name":"Eek"}},{"color":"blue","scale":"0.00","id":628,"geometry":{"coordinates":[152.178314208984,-32.6675491333008],"type":"Point"},"properties":{"name":"Hawks Nest"}},{"scale":"0.00","color":"blue","properties":{"name":"Hartford"},"id":629,"geometry":{"type":"Point","coordinates":[-72.6850891113281,41.7637100219727]}},{"scale":"0.00","color":"blue","properties":{"name":"Raleigh"},"id":630,"geometry":{"coordinates":[-78.6386108398438,35.7720985412598],"type":"Point"}},{"id":631,"geometry":{"type":"Point","coordinates":[-16.5974502563477,28.3129405975342]},"properties":{"name":"Riscos de la Fortaleza"},"color":"blue","scale":"0.00"},{"scale":"0.00","color":"blue","properties":{"name":"Ajaqutalik River"},"geometry":{"coordinates":[-82.5486526489258,68.401008605957],"type":"Point"},"id":633},{"geometry":{"coordinates":[-0.125740006566048,51.5085296630859],"type":"Point"},"id":634,"properties":{"name":"London"},"color":"blue","scale":"0.00"},{"geometry":{"type":"Point","coordinates":[35.3488502502441,32.6306304931641]},"id":635,"properties":{"name":"Nein"},"color":"blue","scale":"0.00"},{"scale":"0.00","color":"blue","properties":{"name":"Cabo Gracias a Dios"},"id":636,"geometry":{"type":"Point","coordinates":[-83.1720123291016,14.9892196655273]}},{"properties":{"name":"Saint Petersburg"},"geometry":{"coordinates":[30.3141307830811,59.9386291503906],"type":"Point"},"id":637,"scale":"0.00","color":"blue"},{"scale":"0.00","color":"blue","properties":{"name":"Vienna"},"geometry":{"type":"Point","coordinates":[16.3720798492432,48.2084884643555]},"id":638},{"scale":"0.00","color":"blue","properties":{"name":"China"},"id":639,"geometry":{"type":"Point","coordinates":[105,35]}},{"color":"blue","scale":"0.00","geometry":{"type":"Point","coordinates":[147,-42]},"id":640,"properties":{"name":"State of Tasmania"}},{"properties":{"name":"Panama"},"id":641,"geometry":{"type":"Point","coordinates":[-80,9]},"scale":"0.00","color":"blue"},{"properties":{"name":"Washington Bridge"},"geometry":{"coordinates":[-73.1103897094727,41.2003707885742],"type":"Point"},"id":642,"scale":"0.00","color":"blue"},{"color":"blue","scale":"0.00","geometry":{"type":"Point","coordinates":[-71.4998016357422,43.6670188903809]},"id":643,"properties":{"name":"New Hampshire"}},{"properties":{"name":"Harrisburg"},"geometry":{"type":"Point","coordinates":[-76.8844223022461,40.2737007141113]},"id":644,"scale":"0.00","color":"blue"},{"geometry":{"type":"Point","coordinates":[-3.40360999107361,51.6130599975586]},"id":645,"properties":{"name":"Porth"},"color":"blue","scale":"0.00"},{"properties":{"name":"Théâtre national algérien"},"id":646,"geometry":{"type":"Point","coordinates":[3.06019997596741,36.7811889648438]},"scale":"0.00","color":"blue"},{"scale":"0.00","color":"blue","properties":{"name":"Madison Square Garden Center"},"geometry":{"coordinates":[-73.9934692382812,40.750659942627],"type":"Point"},"id":647},{"scale":"0.00","color":"blue","properties":{"name":"Nansen Ice Sheet"},"id":648,"geometry":{"type":"Point","coordinates":[163.16667175293,-74.8833312988281]}},{"geometry":{"coordinates":[102.609283447266,12.8489503860474],"type":"Point"},"id":649,"properties":{"name":"Pailin"},"color":"blue","scale":"0.00"},{"geometry":{"coordinates":[8.10354995727539,48.8374786376953],"type":"Point"},"id":650,"properties":{"name":"Moder"},"color":"blue","scale":"0.00"},{"color":"blue","scale":"0.00","geometry":{"coordinates":[-77.0372009277344,38.8523292541504],"type":"Point"},"id":651,"properties":{"name":"Ronald Reagan Washington National Airport"}},{"geometry":{"type":"Point","coordinates":[28,53]},"id":652,"properties":{"name":"Belarus"},"color":"blue","scale":"0.00"},{"scale":"0.00","color":"blue","properties":{"name":"Milwaukee"},"geometry":{"coordinates":[-87.9064712524414,43.0388984680176],"type":"Point"},"id":653},{"id":654,"geometry":{"coordinates":[-78.8866882324219,33.6890602111816],"type":"Point"},"properties":{"name":"Myrtle Beach"},"color":"blue","scale":"0.00"},{"properties":{"name":"South Dennis"},"id":655,"geometry":{"coordinates":[-70.1564102172852,41.6895599365234],"type":"Point"},"scale":"0.00","color":"blue"},{"properties":{"name":"Moscow Kremlin"},"id":656,"geometry":{"coordinates":[37.6177787780762,55.7516708374023],"type":"Point"},"scale":"0.00","color":"blue"},{"properties":{"name":"Louisville"},"geometry":{"coordinates":[-85.759407043457,38.2542381286621],"type":"Point"},"id":657,"scale":"0.00","color":"blue"},{"id":658,"geometry":{"type":"Point","coordinates":[130.84196472168,-12.4519100189209]},"properties":{"name":"Duke Street Rainforest"},"color":"blue","scale":"0.00"},{"scale":"0.00","color":"blue","properties":{"name":"Embassy of the Central African Republic"},"geometry":{"coordinates":[-77.0488662719727,38.9120597839355],"type":"Point"},"id":659},{"geometry":{"type":"Point","coordinates":[-73.9828033447266,40.763500213623]},"id":660,"properties":{"name":"Ed Sullivan Theatre"},"color":"blue","scale":"0.00"},{"scale":"0.00","color":"blue","properties":{"name":"Scugog Centre"},"geometry":{"type":"Point","coordinates":[-78.8966674804688,44.1552810668945]},"id":661},{"scale":"0.00","color":"blue","properties":{"name":"Khirbat Ḥiṭṭīn"},"id":662,"geometry":{"coordinates":[35.4500007629395,32.7999992370605],"type":"Point"}},{"scale":"0.00","color":"blue","properties":{"name":"Trinidad and Tobago"},"geometry":{"coordinates":[-61,11],"type":"Point"},"id":663},{"color":"blue","scale":"0.00","geometry":{"coordinates":[51.25,25.5],"type":"Point"},"id":664,"properties":{"name":"Qatar"}},{"color":"blue","scale":"0.00","id":665,"geometry":{"coordinates":[-103.452522277832,43.88037109375],"type":"Point"},"properties":{"name":"Mount Rushmore National Memorial"}},{"properties":{"name":"Kennebunkport"},"id":666,"geometry":{"type":"Point","coordinates":[-70.4767227172852,43.3617515563965]},"scale":"0.00","color":"blue"},{"color":"blue","scale":"0.00","geometry":{"coordinates":[-73.25,4],"type":"Point"},"id":667,"properties":{"name":"Colombia"}},{"color":"blue","scale":"0.00","geometry":{"type":"Point","coordinates":[-119.81379699707,39.5296287536621]},"id":668,"properties":{"name":"Reno"}},{"properties":{"name":"Booze"},"geometry":{"coordinates":[5.7081298828125,50.6713104248047],"type":"Point"},